,City,Cloudiness,Country,Date,Humidity,Lat,Lng,Max Temp,Wind Speed
0,Port Keats,0,AU,1620955205,26,-14.25,129.55,81.99,13.18
1,Poum,23,NC,1620955206,74,-20.2333,164.0167,77.38,16.04
2,Hilo,90,US,1620955056,65,19.7297,-155.09,78.8,9.22
3,Khandyga,100,RU,1620955208,31,62.6667,135.6,48.79,5.48
4,Port Alfred,0,ZA,1620955210,82,-33.5906,26.891,59.74,3.78
5,Rikitea,98,PF,1620955091,79,-23.1203,-134.9692,75.15,7.2
6,Olafsvik,67,IS,1620955212,68,64.8945,-23.7142,40.48,4.94
7,Idenao,20,CM,1620955213,88,4.2475,9.0047,75.2,2.3
8,Zhigansk,100,RU,1620955215,59,66.7697,123.3711,42.8,13.2
9,Kungurtug,5,RU,1620955216,44,50.5994,97.5228,43.57,1.39
10,Lüderitz,0,NA,1620955217,40,-26.6481,15.1594,66.63,1.66
11,Iqaluit,90,CA,1620955218,74,63.7506,-68.5145,28.4,9.22
12,Pandan,11,PH,1620955220,77,14.0453,124.1694,84.25,11.21
13,Khrebtovaya,0,RU,1620955221,42,56.7032,104.2494,47.01,4.68
14,Mil'kovo,6,RU,1620955222,40,54.7167,158.6167,49.66,2.68
15,Bedi,100,IN,1620955223,79,22.5,70.05,81.18,11.68
16,Hithadhoo,94,MV,1620955225,80,-0.6,73.0833,81.25,14.9
17,Saint George,1,US,1620955226,7,37.1041,-113.5841,93.0,18.41
18,Sorsk,13,RU,1620955227,48,54.0033,90.2467,53.83,3.85
19,Atuona,23,PF,1620955228,79,-9.8,-139.0333,79.72,18.12
20,Hermanus,0,ZA,1620955230,85,-34.4187,19.2345,57.0,3.29
21,Campbell River,20,CA,1620955117,40,50.0163,-125.2446,69.8,6.91
22,Lavrentiya,87,RU,1620955232,95,65.5833,-171.0,34.86,4.34
23,Lagoa,96,PT,1620955233,94,39.05,-27.9833,63.19,17.78
24,Lompoc,11,US,1620955234,72,34.6391,-120.4579,57.2,12.66
25,Yutsa,20,RU,1620955236,87,43.9564,43.0128,50.0,2.24
26,Båtsfjord,100,NO,1620955237,81,70.6345,29.7185,34.36,12.91
27,Bosaso,94,SO,1620955238,54,11.2842,49.1816,87.48,2.04
28,Thompson,20,CA,1620955240,46,55.7435,-97.8558,50.0,13.8
29,Misratah,77,LY,1620955241,66,32.3754,15.0925,65.59,8.25
30,Coquimbo,0,CL,1620955242,94,-29.9533,-71.3436,55.4,2.3
31,Dunedin,95,NZ,1620955243,61,-45.8742,170.5036,53.01,25.99
32,Puerto Ayora,74,EC,1620955071,93,-0.7393,-90.3518,75.99,5.01
33,Bubaque,2,GW,1620955246,81,11.2833,-15.8333,78.42,15.93
34,Avarua,20,CK,1620955090,74,-21.2078,-159.775,80.6,3.44
35,Bethel,1,US,1620955248,50,41.3712,-73.414,54.0,4.61
36,Hobart,75,AU,1620955249,50,-42.8794,147.3294,51.8,11.5
37,Ushuaia,0,AR,1620955251,61,-54.8,-68.3,42.8,5.75
38,Tessalit,20,ML,1620955252,8,20.1986,1.0114,89.17,8.01
39,Hasaki,75,JP,1620955253,68,35.7333,140.8333,73.99,8.05
40,Marathon,75,US,1620955254,24,44.9,-89.7668,64.4,10.36
41,Punta Arenas,75,CL,1620955054,81,-53.15,-70.9167,41.0,4.61
42,Cherskiy,94,RU,1620955211,84,68.75,161.3,34.63,4.38
43,Strezhevoy,0,RU,1620955228,80,60.7333,77.5889,35.6,2.24
44,Winnemucca,1,US,1620955081,12,40.973,-117.7357,84.2,10.36
45,Manado,20,ID,1620955231,58,1.487,124.8455,89.6,9.22
46,Pahrump,0,US,1620955149,7,36.2083,-115.9839,93.99,3.0
47,Nanortalik,100,GL,1620955262,67,60.1432,-45.2371,40.68,5.28
48,Khatanga,100,RU,1620955263,92,71.9667,102.5,25.75,4.43
49,Gizo Government Station,10,SB,1620955264,68,-8.103,156.8419,85.35,5.59
50,Mount Gambier,40,AU,1620955266,82,-37.8333,140.7667,51.8,21.85
51,Isangel,90,VU,1620955267,83,-19.55,169.2667,78.8,9.22
52,Tautira,40,PF,1620955268,58,-17.7333,-149.15,87.8,16.11
53,Tsabong,0,BW,1620955269,25,-26.0217,22.401,62.51,8.77
54,Mananjary,69,MG,1620955271,85,-21.2167,48.3333,71.98,3.36
55,Awjilah,5,LY,1620955272,44,29.1081,21.2869,71.31,13.33
56,Marsh Harbour,100,BS,1620955273,77,26.5412,-77.0636,79.56,9.35
57,Saint Paul Harbor,90,US,1620955274,71,57.79,-152.4072,46.4,12.66
58,Coos Bay,90,US,1620954997,87,43.3665,-124.2179,54.0,14.97
59,Cape Town,0,ZA,1620955277,93,-33.9258,18.4232,57.0,3.44
60,Bambous Virieux,40,MU,1620955278,78,-20.3428,57.7575,77.0,11.5
61,Blackwater,0,AU,1620955279,23,-23.5833,148.8833,74.82,8.23
62,Mataura,74,NZ,1620955280,71,-46.1927,168.8643,48.99,5.01
63,Cockburn Town,40,TC,1620955042,73,21.4612,-71.1419,78.8,11.5
64,Busselton,100,AU,1620955163,77,-33.65,115.3333,57.0,5.99
65,Nemuro,75,JP,1620955090,100,43.3236,145.575,53.6,5.75
66,Manhattan,1,US,1620955285,31,40.7834,-73.9662,64.4,3.62
67,Butaritari,29,KI,1620955247,79,3.0707,172.7902,82.0,12.3
68,Rach Gia,40,VN,1620955287,74,10.0167,105.0833,86.0,1.14
69,Qaqortoq,20,GL,1620955288,31,60.7167,-46.0333,44.6,18.41
70,Tasiilaq,9,GL,1620955151,64,65.6145,-37.6368,30.2,6.91
71,Sajanan,20,TN,1620955291,88,37.0573,9.2426,55.4,4.83
72,East London,0,ZA,1620955292,68,-33.0153,27.9116,61.59,1.95
73,Sittwe,83,MM,1620955293,75,20.15,92.9,82.69,4.65
74,Bluff,100,NZ,1620955295,71,-46.6,168.3333,48.99,5.01
75,Luanda,75,AO,1620955296,94,-8.8368,13.2343,77.0,2.3
76,Arni,100,IN,1620955297,69,12.6667,79.2833,83.86,3.29
77,Saint-Philippe,0,RE,1620955298,68,-21.3585,55.7679,73.4,6.91
78,Taksimo,99,RU,1620955300,46,56.3444,114.8794,45.93,4.61
79,Ekibastuz,4,KZ,1620955301,82,51.6667,75.3667,49.77,12.71
80,Kapaa,75,US,1620955302,83,22.0752,-159.319,78.01,20.71
81,Tuktoyaktuk,75,CA,1620955303,80,69.4541,-133.0374,23.0,17.27
82,Pembroke,1,CA,1620955305,29,45.8168,-77.1162,64.4,4.47
83,Albany,20,US,1620955234,47,42.6001,-73.9662,55.4,6.91
84,Comodoro Rivadavia,0,AR,1620955269,61,-45.8667,-67.5,48.2,11.5
85,Namatanai,4,PG,1620955308,66,-3.6667,152.4333,86.16,9.33
86,Pontes e Lacerda,22,BR,1620955058,80,-15.2261,-59.3353,67.93,4.14
87,Airai,13,TL,1620955310,59,-8.9266,125.4092,68.97,4.47
88,Tazovsky,93,RU,1620955312,94,67.4667,78.7,26.33,6.6
89,New Norfolk,94,AU,1620955313,72,-42.7826,147.0587,48.99,4.0
90,Cabedelo,90,BR,1620955314,100,-6.9811,-34.8339,73.4,5.75
91,Biak,63,ID,1620955315,68,-0.9131,122.8766,82.98,6.67
92,Buala,30,SB,1620955317,67,-8.145,159.5921,85.93,3.58
93,Bredasdorp,0,ZA,1620955318,93,-34.5322,20.0403,50.0,5.75
94,Narsaq,20,GL,1620955240,31,60.9167,-46.05,44.6,18.41
95,Arraial do Cabo,90,BR,1620955226,100,-22.9661,-42.0278,66.2,2.3
96,Charleston,20,US,1620955321,67,32.7766,-79.9309,64.0,6.91
97,Provideniya,0,RU,1620955323,65,64.3833,-173.3,41.0,11.18
98,Whitianga,100,NZ,1620955324,50,-36.8333,175.7,56.95,5.35
99,Baie-Comeau,1,CA,1620955325,71,49.2168,-68.1489,46.4,3.44
100,La Peca,51,PE,1620955326,85,-5.6111,-78.435,69.46,3.76
101,Norman Wells,75,CA,1620955328,53,65.282,-126.8329,44.6,19.57
102,Beyşehir,3,TR,1620955329,46,37.6773,31.7246,53.4,5.01
103,Adrar,0,MR,1620955330,15,20.5022,-10.0711,78.96,11.05
104,Ahar,8,IR,1620955331,81,38.4774,47.0699,53.82,2.57
105,Faanui,100,PF,1620955333,78,-16.4833,-151.75,81.57,16.4
106,Pala,100,TD,1620955334,46,9.3642,14.9046,83.88,9.8
107,Bemidji,75,US,1620955107,44,47.4736,-94.8803,60.8,17.27
108,Avera,1,US,1620955336,72,33.194,-82.5271,59.0,5.01
109,Upernavik,100,GL,1620955337,81,72.7868,-56.1549,32.13,9.19
110,Saskylakh,88,RU,1620955339,89,71.9167,114.0833,28.83,2.39
111,Roald,90,NO,1620955340,93,62.5833,6.1333,45.0,16.11
112,Jamestown,1,US,1620955239,40,42.097,-79.2353,51.8,4.61
113,São João da Barra,9,BR,1620955342,84,-21.6403,-41.0511,67.23,9.26
114,Hearst,96,CA,1620955343,27,49.6835,-83.6665,62.6,4.61
115,Flinders,0,AU,1620955345,46,-34.5833,150.8552,64.99,8.99
116,Port Hueneme,90,US,1620955346,77,34.1478,-119.1951,64.4,10.36
117,São Félix do Xingu,100,BR,1620955347,86,-6.6447,-51.995,73.87,2.39
118,Alofi,75,NU,1620955348,78,-19.0595,-169.9187,80.6,13.8
119,Boyuibe,100,BO,1620955350,63,-20.4167,-63.2833,62.73,7.09
120,Ruthin,100,GB,1620955351,95,53.1137,-3.3178,48.0,1.45
121,Csurgó,100,HU,1620955352,100,46.2531,17.1006,53.6,2.3
122,Vaini,75,TO,1620955353,73,-21.2,-175.2,77.0,6.91
123,Saint-Pierre,0,RE,1620955355,68,-21.3393,55.4781,71.6,6.91
124,Verkhnevilyuysk,68,RU,1620955356,32,63.4453,120.3167,54.95,4.99
125,Hualmay,6,PE,1620955303,84,-11.0964,-77.6139,65.88,8.7
126,Faya,40,SA,1620955358,37,18.3851,42.4509,71.6,4.61
127,Carnarvon,6,AU,1620955360,57,-24.8667,113.6333,75.2,10.36
128,Ballangen,90,NO,1620955069,81,68.3428,16.8315,42.01,17.27
129,Abadiânia,0,BR,1620955161,63,-16.2042,-48.7069,64.4,4.61
130,Natal,75,BR,1620955190,94,-5.795,-35.2094,75.2,3.44
131,Matagami,40,CA,1620955364,44,49.7502,-77.6328,57.2,3.44
132,Edendale,0,ZA,1620955365,74,-29.6528,30.3147,57.0,5.79
133,Altamont,1,US,1620955292,17,42.2068,-121.7372,79.0,18.41
134,Adiaké,20,CI,1620955105,89,5.2863,-3.304,82.4,5.75
135,Jiaojiang,100,CN,1620955343,100,28.6803,121.4428,80.01,4.29
136,Kaitangata,99,NZ,1620955370,52,-46.2817,169.8464,55.99,5.99
137,Kabalo,5,CD,1620955371,85,-6.05,26.9167,67.78,3.44
138,Kilindoni,44,TZ,1620955372,74,-7.9139,39.6668,79.3,13.98
139,Tuatapere,100,NZ,1620955374,71,-46.1333,167.6833,48.99,5.01
140,Chui,94,UY,1620955100,77,-33.6971,-53.4616,51.58,5.01
141,São Filipe,9,CV,1620955329,76,14.8961,-24.4956,74.3,4.85
142,Ribeira Grande,99,PT,1620955377,94,38.5167,-28.7,64.17,11.5
143,San Cristobal,20,VE,1620955378,74,7.7669,-72.225,82.4,3.44
144,Launceston,27,AU,1620955146,62,-41.45,147.1667,55.0,10.36
145,Dikson,100,RU,1620955381,87,73.5069,80.5464,22.41,1.23
146,Bayir,0,TR,1620955382,82,37.2687,28.2167,55.4,1.14
147,Princeton,90,US,1620955383,88,25.5384,-80.4089,75.2,6.91
148,Hanzhong,100,CN,1620955385,91,33.0728,107.0303,67.24,1.05
149,Itarema,97,BR,1620955386,90,-2.9248,-39.9167,76.84,10.71
150,Kavaratti,100,IN,1620955388,85,10.5669,72.642,81.75,35.19
151,Bambanglipuro,97,ID,1620955389,77,-7.95,110.2833,81.64,8.41
152,Castro,83,BR,1620955390,78,-24.7911,-50.0119,53.8,4.61
153,Barrow,90,US,1620955228,79,71.2906,-156.7887,17.6,12.66
154,Yellowknife,90,CA,1620955249,86,62.456,-114.3525,28.4,17.27
155,Port Elizabeth,0,ZA,1620955393,87,-33.918,25.5701,53.6,5.75
156,Moro,0,PK,1620955395,65,26.6646,68.0016,78.8,4.61
157,Takhtamygda,71,RU,1620955396,72,54.1,123.5667,47.08,2.73
158,Terekli-Mekteb,1,RU,1620955397,78,44.1671,45.8698,56.48,7.02
159,Tuy Hoa,57,VN,1620955294,68,13.0833,109.3,86.31,2.3
160,Barra de Tecoanapa,100,MX,1620955399,67,16.5167,-98.75,86.11,3.87
161,Fortuna,90,US,1620955401,100,40.5982,-124.1573,53.01,9.22
162,San Carlos del Zulia,100,VE,1620955402,80,9.0,-71.9135,79.54,3.91
163,Sisimiut,61,GL,1620955403,75,66.9395,-53.6735,34.74,4.72
164,León,40,MX,1620955372,46,21.1167,-101.6667,71.6,11.5
165,Mahajanga,20,MG,1620955405,88,-15.7167,46.3167,69.8,3.44
166,Aklavik,100,CA,1620955219,52,68.2191,-135.0107,39.2,6.91
167,Kavieng,9,PG,1620955125,67,-2.5744,150.7967,86.41,14.07
168,Norrtälje,0,SE,1620955409,87,59.758,18.705,46.4,2.3
169,Mar del Plata,90,AR,1620955143,100,-38.0023,-57.5575,59.0,4.61
170,Mpika,11,ZM,1620955411,85,-11.8343,31.4529,52.39,4.07
171,Vyaz'ma,12,RU,1620955208,95,55.2104,34.2951,42.26,6.64
172,Praia,0,CV,1620955413,68,14.9215,-23.5087,73.4,6.91
173,Zhaozhou,99,CN,1620955415,45,45.6833,125.3167,71.49,18.77
174,Hong Kong,99,HK,1620955266,78,22.2855,114.1577,87.01,1.01
175,Brainerd,90,US,1620955417,25,46.358,-94.2008,64.4,5.75
176,Iralaya,40,HN,1620955418,83,15.0,-83.2333,80.6,10.36
177,Hofn,93,IS,1620955419,68,64.2539,-15.2082,38.05,8.1
178,Mareeba,40,AU,1620955421,58,-17.0,145.4333,87.01,13.8
179,Porteirinha,15,BR,1620955422,42,-15.7433,-43.0283,67.24,7.65
180,Arvika,40,SE,1620955423,87,59.6553,12.5852,51.8,4.61
181,Jiuquan,100,CN,1620955424,54,39.7432,98.5174,51.08,8.3
182,Maniitsoq,70,GL,1620955426,70,65.4167,-52.9,35.06,3.69
183,Clarence Town,20,AU,1620955427,48,-32.5833,151.7833,66.0,21.85
184,Chokurdakh,96,RU,1620955428,87,70.6333,147.9167,17.49,2.37
185,Asău,100,RO,1620955407,66,46.4333,26.4,51.01,4.74
186,Río Gallegos,0,AR,1620955431,61,-51.6226,-69.2181,46.4,4.61
187,Husavik,0,IS,1620955432,93,66.0449,-17.3389,30.2,2.3
188,Beringovskiy,98,RU,1620955433,98,63.05,179.3167,32.43,6.73
189,Mayo,44,US,1620955434,78,38.8876,-76.5119,57.99,5.66
190,Mount Isa,0,AU,1620955436,15,-20.7333,139.5,75.2,12.66
191,Bengkulu,97,ID,1620955184,83,-3.8004,102.2655,78.91,2.17
192,Vestmannaeyjar,100,IS,1620955438,67,63.4427,-20.2734,40.46,12.97
193,Geraldton,42,AU,1620955234,36,-28.7667,114.6,77.0,21.85
194,Kayes,9,ML,1620955440,11,14.0,-11.0,94.23,1.72
195,Maragogi,100,BR,1620955442,88,-9.0122,-35.2225,76.39,4.34
196,Stroiești,0,RO,1620955443,93,47.6167,26.1333,52.0,6.91
197,Talaya,100,RU,1620955444,85,61.3833,152.75,35.35,7.72
198,Rupert,1,US,1620955445,18,42.6191,-113.6772,77.0,8.05
199,Nioro,62,GM,1620955447,49,13.35,-15.75,78.96,9.62
200,Ponta do Sol,20,PT,1620955448,42,32.6667,-17.1,68.0,14.97
201,Kunming,0,CN,1620955449,52,25.0389,102.7183,66.2,22.37
202,Anadyr,75,RU,1620955450,87,64.75,177.4833,35.6,8.95
203,Japura,99,ID,1620955179,91,-0.3167,102.35,78.37,1.68
204,Vao,0,NC,1620955453,82,-22.6667,167.4833,76.08,9.95
205,Hamilton,1,US,1620955188,54,39.1834,-84.5333,59.0,1.39
206,Torbay,75,CA,1620955437,70,47.6666,-52.7314,43.0,14.97
207,Santa Rosa,40,PH,1620955456,58,14.3122,121.1114,90.0,8.05
208,Daru,41,PG,1620955457,82,-9.0763,143.2092,82.42,12.24
209,Berlevåg,99,NO,1620955166,68,70.8578,29.0864,34.75,13.62
210,Leningradskiy,100,RU,1620955460,93,69.3833,178.4167,33.78,0.2
211,Kontagora,8,NG,1620955461,67,10.3999,5.4695,79.05,5.84
212,Denia,7,ES,1620955462,48,38.8408,0.1057,71.01,10.0
213,Kashmor,0,PK,1620955463,42,28.4333,69.5833,84.52,20.18
214,Mahibadhoo,100,MV,1620955464,72,3.7833,72.9667,84.67,23.51
215,Sitka,90,US,1620955174,76,57.0531,-135.33,46.4,6.91
216,Rogers,1,US,1620955467,34,36.3668,-95.5836,64.4,3.71
217,Los Llanos de Aridane,0,ES,1620955468,68,28.6585,-17.9182,66.2,13.8
218,Almeria,0,ES,1620955469,88,37.1667,-2.3333,66.0,3.44
219,Pisco,0,PE,1620955468,88,-13.7,-76.2167,66.2,12.66
220,Cody,1,US,1620955472,36,44.5263,-109.0565,64.99,13.8
221,Ekhabi,100,RU,1620955473,94,53.5102,142.9671,35.13,8.84
222,Qaanaaq,100,GL,1620955475,86,77.484,-69.3632,30.99,7.02
223,Atambua,12,ID,1620955476,59,-9.1061,124.8925,80.83,5.06
224,Abu Samrah,0,SY,1620955477,49,35.3029,37.1841,64.62,5.41
225,Bairiki Village,20,KI,1620955289,74,1.3292,172.9752,86.0,8.05
226,Saint Stephen,92,GB,1620955479,87,50.3333,-4.9,48.2,8.05
227,Thunder Bay,75,CA,1620955263,27,48.4001,-89.3168,64.4,8.05
228,Amga,15,RU,1620955482,35,60.8953,131.9608,55.09,5.26
229,Siocon,100,PH,1620955483,80,7.7061,122.1353,83.53,1.52
230,Mīnāb,20,IR,1620955484,61,27.1467,57.0801,84.2,4.61
231,Ahome,1,MX,1620955485,18,25.9167,-109.1833,91.4,21.85
232,Ancud,90,CL,1620955487,100,-41.8697,-73.8203,51.01,4.61
233,Khorinsk,11,RU,1620955488,45,52.1657,109.7726,44.33,7.61
234,Zapolyarnyy,90,RU,1620955489,69,69.4154,30.8136,35.6,12.66
235,Kota Kinabalu,20,MY,1620955490,84,5.9749,116.0724,86.0,4.61
236,Dingcheng,100,CN,1620955492,89,32.1272,115.0394,71.94,3.0
237,Egvekinot,100,RU,1620955493,99,66.3167,-179.1667,31.15,1.74
238,Cayenne,75,GF,1620955494,94,4.9333,-52.3333,75.99,11.5
239,Manaure,100,CO,1620955495,69,11.7751,-72.4445,82.36,15.1
240,Paramonga,7,PE,1620955497,85,-10.6667,-77.8333,66.29,7.58
241,Tilichiki,69,RU,1620955498,94,60.4667,166.1,31.57,6.96
242,Westport,1,US,1620955298,58,41.1415,-73.3579,60.01,8.05
243,Nueva Loja,75,EC,1620955500,100,0.0847,-76.8828,75.2,2.3
244,Zhezkazgan,8,KZ,1620955503,53,47.8043,67.7144,59.23,9.89
245,Mafinga,100,TZ,1620955504,63,-7.25,35.0667,67.8,3.31
246,Harper,6,LR,1620955505,77,4.375,-7.7169,79.48,6.78
247,Marsabit,48,KE,1620955506,84,2.3284,37.9899,62.58,15.55
248,Erenhot,100,CN,1620955508,81,43.6475,111.9767,60.53,4.23
249,Kaberamaido,9,UG,1620955509,91,1.7389,33.1594,65.26,2.3
250,Gympie,0,AU,1620955510,56,-26.1898,152.665,69.01,1.01
251,Krasnyy Chikoy,18,RU,1620955512,48,50.3643,108.7512,42.19,9.01
252,Pochutla,75,MX,1620955513,62,15.7432,-96.4661,87.8,17.27
253,Mahébourg,40,MU,1620955514,78,-20.4081,57.7,75.2,11.5
254,Kununurra,5,AU,1620955515,22,-15.7667,128.7333,80.6,12.66
255,Esperance,90,AU,1620955517,82,-33.8667,121.9,59.0,4.61
256,Lorengau,20,PG,1620955505,74,-2.0226,147.2712,85.26,10.09
257,Turinskaya Sloboda,39,RU,1620955519,68,57.6232,64.3858,60.64,4.94
258,Choszczno,99,PL,1620955520,99,53.169,15.4205,57.0,3.0
259,Ko Samui,20,TH,1620955521,70,9.5357,99.9357,89.6,5.75
260,Quelimane,0,MZ,1620955523,89,-17.8786,36.8883,67.78,0.92
261,Province of Mantua,88,IT,1620955524,94,45.1667,10.7833,54.0,1.99
262,Pustoshka,87,RU,1620955525,92,56.3355,29.369,45.9,8.28
263,Katsuura,75,JP,1620955526,73,35.1333,140.3,73.99,2.3
264,Srandakan,96,ID,1620955528,76,-7.9386,110.2506,81.81,8.14
265,High Level,75,CA,1620955529,44,58.5169,-117.136,59.0,9.22
266,Sambava,40,MG,1620955530,81,-14.2667,50.1667,72.54,9.86
267,Skagen,100,DK,1620955531,93,57.7209,10.5839,54.0,7.0
268,Les Cayes,94,HT,1620955533,84,18.2,-73.75,78.51,8.03
269,Wattegama,75,LK,1620955534,78,6.7989,81.4808,80.6,5.75
270,Nizhnetroitskiy,47,RU,1620955535,54,54.3385,53.6833,59.2,5.3
271,Meulaboh,93,ID,1620955536,86,4.1363,96.1285,78.04,3.18
272,Kindu,8,CD,1620955538,89,-2.95,25.95,69.19,2.8
273,Necochea,94,AR,1620955277,75,-38.5473,-58.7368,55.33,7.07
274,Sainte-Maxime,46,FR,1620955540,76,43.3,6.6333,57.99,4.61
275,Chipinge,0,ZW,1620955541,86,-20.1883,32.6236,51.64,2.98
276,Ahipara,100,NZ,1620955387,70,-35.1667,173.1667,64.87,12.93
277,Nikolskoye,100,RU,1620955544,71,59.7035,30.7861,57.0,2.24
278,Port Lincoln,100,AU,1620955490,63,-34.7333,135.8667,59.11,15.82
279,Bundaberg,0,AU,1620955402,35,-24.85,152.35,75.99,9.22
280,Nome,1,US,1620955511,66,64.5011,-165.4064,57.0,6.91
281,Puerto Quijarro,0,BO,1620955548,69,-17.7833,-57.7667,68.88,2.93
282,Kahului,20,US,1620955428,54,20.8947,-156.47,82.4,23.02
283,Rabaul,4,PG,1620955550,71,-4.1967,152.1721,83.39,2.89
284,Gamba,100,GA,1620955513,87,-2.65,10.0,77.47,0.54
285,Lerwick,75,GB,1620955552,87,60.1545,-1.1494,44.6,9.22
286,Kudahuvadhoo,100,MV,1620955554,73,2.6708,72.8944,84.31,20.51
287,Tarakan,40,ID,1620955555,94,3.3,117.6333,82.4,3.44
288,Taikang,100,CN,1620955556,46,46.8333,124.4167,69.17,22.15
289,Mogadishu,100,SO,1620955557,83,2.0371,45.3438,79.79,18.37
290,Fort Nelson,75,CA,1620955559,36,58.8053,-122.7002,60.8,9.22
291,Rincon,1,US,1620955560,55,32.296,-81.2354,62.6,4.61
292,Diffa,0,NE,1620955561,43,13.3154,12.6113,84.6,10.87
293,Menongue,0,AO,1620955562,65,-14.6585,17.691,52.65,3.15
294,Dubbo,40,AU,1620955524,54,-32.25,148.6167,57.2,13.8
295,Coyhaique,0,CL,1620955565,81,-45.5752,-72.0662,41.0,8.05
296,Yaan,22,NG,1620955566,92,7.3833,8.5667,72.68,4.18
297,Bichura,9,RU,1620955567,50,50.5881,107.6022,43.21,9.13
298,Semnan,100,IR,1620955569,51,35.5729,53.3971,67.21,3.74
299,Bonthe,100,SL,1620955570,86,7.5264,-12.505,80.15,6.2
300,Atar,0,MR,1620955571,15,20.5169,-13.0499,81.46,9.55
301,Östersund,40,SE,1620955572,100,63.1792,14.6357,43.0,5.75
302,Skellefteå,90,SE,1620955574,93,64.7507,20.9528,46.99,6.91
303,Koumac,12,NC,1620955575,64,-20.5667,164.2833,81.45,3.89
304,Padre Paraíso,24,BR,1620955576,95,-17.0742,-41.4844,60.62,5.57
305,Talnakh,64,RU,1620955577,93,69.4865,88.3972,23.02,9.64
306,Caravelas,31,BR,1620955579,76,-17.7125,-39.2481,73.96,11.74
307,Acapulco de Juárez,75,MX,1620955320,74,16.8634,-99.8901,86.0,3.69
308,Umba,89,RU,1620955581,86,66.6871,34.3429,46.02,14.32
309,Warri,21,NG,1620955582,92,5.5167,5.75,76.3,1.9
310,Laas,40,IT,1620955496,87,46.6166,10.7002,46.0,9.22
311,Acarí,11,PE,1620955584,68,-15.4311,-74.6158,71.55,3.0
312,Arrifes,75,PT,1620955586,94,37.7667,-25.7,62.6,11.5
313,Soure,100,BR,1620955587,89,-0.7167,-48.5233,76.84,3.4
314,Touros,75,BR,1620955588,94,-5.1989,-35.4608,75.2,2.3
315,Mtwara,28,TZ,1620955589,92,-10.2667,40.1833,71.15,9.37
316,Hokitika,65,NZ,1620955591,57,-42.7167,170.9667,52.63,7.09
317,Tutóia,100,BR,1620955592,90,-2.7619,-42.2744,77.47,5.14
318,College,75,US,1620955593,36,64.8569,-147.8028,63.0,8.05
319,Mahanoro,2,MG,1620955595,88,-19.9,48.8,71.47,6.55
320,Clyde River,75,CA,1620955596,93,70.4692,-68.5914,21.2,9.22
321,Loa Janan,100,ID,1620955597,83,-0.583,117.095,81.41,2.46
322,Port Blair,35,IN,1620955598,72,11.6667,92.75,84.72,2.26
323,Fuyang,100,CN,1620955600,92,32.9,115.8167,71.6,4.9
324,Huarmey,7,PE,1620955391,84,-10.0681,-78.1522,67.26,8.5
325,Grindavik,75,IS,1620955602,81,63.8424,-22.4338,37.4,5.75
326,Codrington,100,AU,1620955603,66,-38.2667,141.9667,53.49,15.73
327,Vila Franca do Campo,75,PT,1620955552,94,37.7167,-25.4333,62.6,11.5
328,Tiksi,100,RU,1620955605,89,71.6872,128.8694,31.71,5.41
329,Saldanha,87,ZA,1620955522,76,-33.0117,17.9442,51.8,4.79
330,Muchkapskiy,100,RU,1620955608,90,51.8513,42.4717,57.0,5.84
331,Linxia Chengguanzhen,100,CN,1620955609,62,35.6003,103.2064,52.68,4.65
332,Shimoda,75,JP,1620955509,83,34.6667,138.95,68.0,8.05
333,Griffith,1,US,1620955611,29,41.5284,-87.4237,60.8,4.61
334,Salalah,20,OM,1620955612,89,17.0151,54.0924,82.4,2.3
335,Vardø,100,NO,1620955614,73,70.3705,31.1107,36.25,18.1
336,Kiryat Gat,0,IL,1620955615,77,31.61,34.7642,64.0,1.54
337,Batagay-Alyta,100,RU,1620955616,53,67.8006,130.4114,36.27,4.09
338,Berkovica,20,BA,1620955617,93,44.6156,18.4294,51.01,2.3
339,Lewistown,1,US,1620955619,73,40.5992,-77.5714,52.0,5.75
340,San Policarpo,77,PH,1620955620,83,12.1791,125.5072,83.08,12.8
341,Cabo San Lucas,1,MX,1620955517,29,22.8909,-109.9124,91.99,11.5
342,Zholymbet,54,KZ,1620955622,81,51.7433,71.7122,56.01,8.52
343,Taoudenni,0,ML,1620955624,8,22.6783,-3.9836,90.57,6.42
344,Aljezur,28,PT,1620955625,93,37.3191,-8.8033,58.98,10.45
345,Aksu,74,CN,1620955626,66,41.1231,80.2644,55.47,11.56
346,Tangi,20,PK,1620955628,64,34.3006,71.6536,75.2,6.91
347,Istria,90,RO,1620955629,100,44.5667,28.7167,50.0,4.61
348,Ambulu,99,ID,1620955630,76,-8.345,113.6058,80.71,3.8
349,Athabasca,28,CA,1620955631,34,54.7169,-113.2854,64.4,4.61
350,Mitsamiouli,100,KM,1620955633,71,-11.3847,43.2844,80.15,7.02
351,Belawan,40,ID,1620955634,94,3.7755,98.6832,78.8,3.44
352,Yegros,40,PY,1620955635,66,-26.45,-56.4,54.52,6.13
353,Marfino,0,RU,1620955636,93,55.7028,37.3822,50.0,4.47
354,Neiafu,75,TO,1620955638,65,-18.65,-173.9833,80.6,8.05
355,Pujehun,100,SL,1620955639,93,7.3581,-11.7208,77.5,2.19
356,Ostrovnoy,70,RU,1620955640,96,68.0531,39.5131,38.23,10.45
357,Pará de Minas,0,BR,1620955520,60,-19.8603,-44.6083,68.0,8.05
358,Banjar,40,ID,1620955642,84,-8.19,114.9675,84.2,18.41
359,Sørland,36,NO,1620955644,80,67.667,12.6934,39.63,26.15
360,Flin Flon,49,CA,1620955645,30,54.7682,-101.865,62.11,7.4
361,Reconquista,100,AR,1620955646,59,-29.15,-59.65,54.0,6.38
362,Inongo,100,CD,1620955647,82,-1.95,18.2667,73.63,2.01
363,Saint Anthony,40,US,1620955649,20,45.0205,-93.218,68.0,10.36
364,Havelock,75,US,1620955650,39,34.8791,-76.9013,62.6,9.22
365,Ossora,10,RU,1620955651,86,59.2353,163.0719,33.75,1.79
366,Thinadhoo,33,MV,1620955652,73,0.5333,72.9333,83.66,13.71
367,Port Hardy,75,CA,1620955654,67,50.6996,-127.4199,57.2,9.22
368,Martin,40,US,1620955572,78,27.0837,-80.4164,79.0,11.5
369,Ambilobe,20,MG,1620955656,90,-13.2,49.05,67.93,3.09
370,Mehamn,97,NO,1620955657,72,71.0357,27.8492,33.62,11.95
371,Hambantota,75,LK,1620955659,78,6.1241,81.1185,80.6,5.75
372,Springville,40,US,1620955604,10,40.1652,-111.6107,80.6,5.75
373,Aasiaat,100,GL,1620955661,81,68.7098,-52.8699,29.39,3.6
374,George Town,20,MY,1620955662,89,5.4112,100.3354,86.0,4.88
375,Chumikan,100,RU,1620955401,92,54.7183,135.315,36.0,1.52
376,Baruun-Urt,100,MN,1620955664,93,46.6806,113.2792,38.34,13.69
377,Bowen,0,AU,1620955666,57,-20.0167,148.2333,80.6,13.8
378,Xining,100,CN,1620955667,67,36.6167,101.7667,50.59,10.83
379,Kieta,46,PG,1620955668,65,-6.2167,155.6333,85.53,4.85
380,Tabuk,31,PH,1620955669,46,17.4189,121.4443,86.83,7.38
381,Kenai,1,US,1620955490,38,60.5544,-151.2583,59.0,12.66
382,Chabahar,2,IR,1620955660,60,25.2919,60.643,85.62,4.23
383,Kirakira,15,SB,1620955508,70,-10.4544,161.9205,85.12,7.29
384,Constitución,38,CL,1620955556,64,-35.3333,-72.4167,54.93,5.37
385,Yar-Sale,100,RU,1620955602,89,66.8333,70.8333,33.06,18.1
386,Yārāda,75,IN,1620955676,94,17.65,83.2667,84.2,2.3
387,Whitehorse,75,CA,1620955677,40,60.7161,-135.0538,50.0,12.66
388,Andenes,75,NO,1620955678,81,69.3143,16.1194,37.4,35.68
389,Dondaicha,7,IN,1620955680,64,21.3333,74.5667,81.03,12.55
390,Along,100,IN,1620955681,99,28.1667,94.7667,64.71,0.49
391,Porto Walter,13,BR,1620955682,98,-8.2686,-72.7439,72.27,1.12
392,Raudeberg,100,NO,1620955683,88,61.9875,5.1352,48.0,22.3
393,Jacmel,49,HT,1620955685,54,18.2342,-72.5347,84.2,8.05
394,Baykit,100,RU,1620955686,93,61.67,96.37,42.22,7.11
395,Zeya,60,RU,1620955684,63,53.75,127.2667,52.95,4.34
396,Cidreira,45,BR,1620955688,66,-30.1811,-50.2056,57.4,2.24
397,Makakilo City,75,US,1620955689,51,21.3469,-158.0858,84.2,11.5
398,Riyadh,0,SA,1620955535,17,24.6877,46.7219,89.6,4.61
399,Valparaíso,0,CL,1620955582,94,-33.0393,-71.6273,57.0,3.44
400,Coahuayana Viejo,10,MX,1620955693,65,18.7333,-103.6833,82.96,2.46
401,Gazimurskiy Zavod,92,RU,1620955694,42,51.5461,118.3266,49.1,6.8
402,Emerald,0,AU,1620955695,35,-23.5333,148.1667,73.0,12.66
403,Shagonar,99,RU,1620955697,40,51.5333,92.8,50.76,1.12
404,San Miguel de Tucumán,75,AR,1620955698,88,-26.8241,-65.2226,57.2,3.44
405,Hoi An,20,VN,1620955699,70,15.8794,108.335,87.8,4.61
406,Malbork,11,PL,1620955701,84,54.0359,19.0266,51.01,5.55
407,Nānākuli,75,US,1620955702,51,21.3906,-158.1547,82.4,11.5
408,Kostolac,90,RS,1620955703,94,44.7149,21.1711,54.0,6.91
409,Longyearbyen,75,SJ,1620955704,74,78.2186,15.6401,28.4,13.8
410,Shaunavon,100,CA,1620955706,44,49.6501,-108.4181,57.2,4.61
411,Nisibis,2,TR,1620955707,21,37.0778,41.2178,74.97,4.41
412,Inuvik,100,CA,1620955708,52,68.3499,-133.7218,39.2,6.91
413,Petropavlovsk-Kamchatskiy,1,RU,1620955710,26,53.0452,158.6483,55.4,11.18
414,Tual,100,ID,1620955492,78,-5.6667,132.75,83.25,18.86
415,Promyshlennyy,100,RU,1620955712,92,67.5833,63.9167,41.04,6.89
416,Abu Dhabi,61,AE,1620955677,89,24.4667,54.3667,80.6,3.44
417,Waingapu,100,ID,1620955714,70,-9.6567,120.2641,82.96,16.89
418,Moussoro,100,TD,1620955715,28,13.6408,16.4901,90.19,1.03
419,Haines Junction,100,CA,1620955603,49,60.7522,-137.5108,48.2,11.5
420,San José de Gracia,50,MX,1620955718,33,20.6667,-102.5833,77.14,5.37
421,Sagua la Grande,75,CU,1620955691,74,22.8067,-80.0756,82.4,4.61
422,Camocim,97,BR,1620955688,90,-2.9022,-40.8411,76.71,7.54
423,Urcos,40,PE,1620955721,54,-13.6861,-71.6228,55.4,6.91
424,Pitimbu,90,BR,1620955722,100,-7.4706,-34.8086,73.4,5.75
425,Tomaszów Lubelski,66,PL,1620955724,84,50.4477,23.4162,55.0,1.01
426,Sidi Ali,3,DZ,1620955725,56,36.0998,0.4206,61.54,7.49
427,Umluj,0,SA,1620955726,58,25.0213,37.2685,79.47,8.75
428,Nenita,37,PH,1620955728,71,12.4917,124.8044,85.33,9.08
429,Bandarbeyla,100,SO,1620955729,63,9.4942,50.8122,85.26,22.35
430,Pangai,75,TO,1620955575,53,-19.8,-174.35,78.8,11.5
431,Suntar,61,RU,1620955731,36,62.1444,117.6319,53.91,4.74
432,Manaus,40,BR,1620955588,94,-3.1019,-60.025,77.0,2.3
433,Niquelândia,0,BR,1620955515,52,-14.4739,-48.4597,69.12,2.21
434,Soyo,24,AO,1620955734,85,-6.1349,12.3689,79.11,5.61
435,Dhārchula,65,IN,1620955736,74,29.85,80.5333,62.4,3.0
436,Ushtobe,100,KZ,1620955737,60,45.2514,77.9838,57.34,9.26
437,Mortka,100,RU,1620955738,58,59.3322,66.0214,55.72,6.64
438,Hilton Head,1,US,1620955448,68,32.2163,-80.7526,64.99,4.61
439,Dingle,48,PH,1620955723,63,10.9995,122.6711,87.06,13.98
440,Sola,90,VU,1620955737,79,-13.8833,167.55,86.0,10.58
441,Hay River,100,CA,1620955743,93,60.8156,-115.7999,33.8,13.8
442,Uyuni,0,BO,1620955744,34,-20.4597,-66.825,41.76,17.85
443,Bétaré Oya,90,CM,1620955745,97,5.6,14.0833,67.3,1.12
444,Mahina,40,PF,1620955747,58,-17.5065,-149.489,87.8,16.11
445,Broken Hill,1,AU,1620955484,58,-31.95,141.4333,57.2,13.8
446,Bayanday,6,RU,1620955749,46,53.0661,105.5139,45.16,5.3
447,Chernoistochinsk,7,RU,1620955750,61,57.7364,59.8719,60.64,3.6
448,Boca do Acre,100,BR,1620955752,97,-8.7522,-67.3978,73.0,1.77
449,Sabang,100,ID,1620955753,75,5.8933,95.3214,82.17,3.27
450,Carauari,59,BR,1620955754,98,-4.8828,-66.8958,73.38,1.79
451,Wajima,75,JP,1620955755,49,37.4,136.9,71.6,3.44
452,Paoua,100,CF,1620955757,85,7.2427,16.4406,70.83,4.45
453,Portland,75,US,1620955171,35,45.5234,-122.6762,77.0,13.8
454,Labuhan,93,ID,1620955759,76,-6.8844,112.2051,80.94,6.82
455,Gao,5,ML,1620955760,15,16.6362,1.637,91.9,8.23
456,Kalmunai,100,LK,1620955761,84,7.4167,81.8167,79.52,6.96
457,Belaya Gora,100,RU,1620955564,85,68.5333,146.4167,28.11,2.62
458,Barguzin,48,RU,1620955764,61,53.6167,109.6167,42.12,5.03
459,Anapskaya,11,RU,1620955765,76,44.89,37.38,51.8,6.71
460,Belyy Yar,0,RU,1620955766,50,53.6039,91.3903,50.0,6.71
461,Sept-Îles,75,CA,1620955502,57,50.2001,-66.3821,50.0,8.05
462,Chitral,0,PK,1620955769,46,35.8462,71.7858,58.08,5.93
463,Inhambane,0,MZ,1620955770,79,-23.865,35.3833,65.82,4.68
464,Klaksvík,75,FO,1620955540,87,62.2266,-6.589,39.2,8.05
465,Walvis Bay,0,NA,1620955772,26,-22.9575,14.5053,71.6,8.05
466,Ürümqi,0,CN,1620955563,36,43.801,87.6005,60.8,6.71
467,Moindou,40,NC,1620955775,74,-21.6924,165.677,82.4,10.36
468,Fayaoué,6,NC,1620955776,67,-20.65,166.5333,77.45,4.94
469,Laguna,1,US,1620955777,32,38.421,-121.4238,82.99,11.5
470,Rawson,58,AR,1620955533,60,-43.3002,-65.1023,54.79,7.31
471,Malakal,10,SS,1620955780,62,9.5334,31.6605,81.07,3.91
472,Zyryanka,100,RU,1620955781,79,65.75,150.85,31.21,14.88
473,Tiznit Province,100,MA,1620955782,54,29.5833,-9.5,67.06,1.92
474,Rørvik,100,NO,1620955783,94,64.8621,11.2373,43.66,12.5
475,Louis Trichardt,0,ZA,1620955784,51,-23.0439,29.9032,53.42,1.1
476,Henties Bay,0,NA,1620955786,51,-22.116,14.2845,69.33,2.39
477,Mīzan Teferī,86,ET,1620955787,97,6.9833,35.5833,59.5,2.66
478,Lebu,100,CL,1620955788,94,-37.6167,-73.65,54.16,2.73
479,Nanyang,100,CN,1620955789,92,32.9947,112.5328,67.98,6.55
480,San Patricio,75,US,1620955791,73,28.017,-97.5169,77.0,6.91
481,Pirojpur,1,BD,1620955792,78,22.5667,89.9833,79.52,2.46
482,Grootfontein,3,NA,1620955793,71,-19.5667,18.1167,51.8,2.3
483,Buin,75,CL,1620955795,58,-33.7333,-70.75,66.99,6.91
484,Saint-François,0,FR,1620955796,93,46.4154,3.9054,48.2,1.14
485,Mackay,0,AU,1620955797,38,-21.15,149.2,79.0,13.8
486,Seddon,75,AU,1620955798,67,-37.8068,144.8916,60.01,20.71
487,Del Rio,1,US,1620955621,47,29.3627,-100.8968,80.6,16.11
488,Pangnirtung,98,CA,1620955801,97,66.1451,-65.7125,24.71,1.21
489,Alamogordo,1,US,1620955803,18,32.8995,-105.9603,86.0,4.61
490,Anjiang,28,CN,1620955804,68,27.3194,110.1031,85.51,11.65
491,Jaffna,97,LK,1620955806,70,9.6685,80.0074,86.16,8.46
492,Douentza,64,ML,1620955807,12,14.9951,-2.9517,87.57,2.68
493,Lar,0,IN,1620955808,54,26.2039,83.9717,83.23,7.61
494,Manoel Urbano,16,BR,1620955810,90,-8.8389,-69.2597,71.17,2.68
495,Evans,5,US,1620955811,53,33.5337,-82.1307,62.01,4.21
496,Krechevitsy,49,RU,1620955813,98,58.617,31.401,45.3,5.46
497,São Miguel do Araguaia,1,BR,1620955814,54,-13.275,-50.1628,72.86,3.0
498,Galveston,90,US,1620955815,60,29.3669,-94.9669,75.2,8.05
499,Santa Vitória do Palmar,99,BR,1620955817,78,-33.5189,-53.3681,51.24,4.38
500,Sabha,100,LY,1620955818,24,27.0377,14.4283,78.93,15.17
501,Ca Mau,92,VN,1620955819,54,9.1769,105.15,91.36,2.71
502,Shenjiamen,100,CN,1620955820,99,29.9576,122.298,68.13,9.64
503,Khanbari,60,NP,1620955722,75,27.3747,87.2039,65.75,1.21
504,Assiut,0,EG,1620955823,46,27.181,31.1837,69.8,10.36
505,Progress,75,US,1620955824,39,40.2851,-76.8314,60.8,3.44
506,Maumere,64,ID,1620955825,66,-8.6199,122.2111,84.69,5.77
507,Sulangan,65,PH,1620955827,74,11.1373,123.7228,83.86,11.5
508,Artigas,99,UY,1620955828,61,-30.4,-56.4667,51.75,7.81
509,Bahawalnagar,34,PK,1620955829,45,30.5508,73.3908,79.25,12.44
510,Thaba-Tseka,0,LS,1620955831,51,-29.522,28.6084,40.59,3.49
511,Jalu,3,LY,1620955832,41,29.0331,21.5482,72.01,13.73
512,Baghdad,0,IQ,1620955777,13,33.3406,44.4009,87.26,8.08
513,Saint-Augustin,96,CA,1620955834,73,51.226,-58.6502,40.62,14.05
514,Ola,84,RU,1620955836,82,59.5833,151.2833,36.59,8.77
515,Trnava,90,SK,1620955837,87,48.3774,17.5872,52.0,8.05
516,Gawler,99,AU,1620955815,72,-34.6,138.7333,60.01,8.01
517,Goderich,0,CA,1620955839,53,43.7501,-81.7165,48.2,3.44
518,Saint-Joseph,0,RE,1620955840,68,-21.3667,55.6167,71.6,6.91
519,Shelburne,1,CA,1620955842,40,44.0787,-80.2041,57.2,4.61
520,Richards Bay,0,ZA,1620955843,62,-28.783,32.0377,63.0,4.5
521,Tura,19,IN,1620955844,85,25.5198,90.2201,74.01,4.23
522,Samarai,9,PG,1620955846,73,-10.6167,150.6667,83.91,11.27
523,Santa Cruz de la Sierra,83,BO,1620955827,63,-17.8,-63.1667,66.76,3.94
524,Coffs Harbour,0,AU,1620955848,45,-30.3,153.1333,68.0,2.3
525,Bom Jardim,75,BR,1620955849,94,-7.7958,-35.5872,71.6,2.3
526,Souillac,40,MU,1620955851,78,-20.5167,57.5167,75.2,11.5
527,Bay Roberts,98,CA,1620955852,75,47.5999,-53.2648,42.01,3.0
528,Mosquera,20,CO,1620955853,63,4.7059,-74.2302,60.8,8.05
529,Brownwood,1,US,1620955722,68,31.7093,-98.9912,69.01,6.91
530,Machalí,93,CL,1620955856,38,-34.1833,-70.6667,62.1,2.39
531,Krasnovishersk,90,RU,1620955857,73,60.4078,57.082,60.78,4.23
532,Vyartsilya,65,RU,1620955858,73,62.1764,30.693,55.83,2.51
533,Scarborough,59,GB,1620955817,87,54.2797,-0.4044,46.0,1.99
534,Halifax,75,CA,1620955860,50,44.6453,-63.5724,52.0,6.91
535,Beira,0,MZ,1620955862,85,-19.8436,34.8389,65.89,4.38
536,Plainview,20,US,1620955863,51,40.7765,-73.4673,57.99,8.05
537,Cervo,100,ES,1620955864,100,43.6702,-7.4101,42.01,9.55
538,Yulara,40,AU,1620955866,59,-25.2406,130.9889,64.4,14.97
539,Wajir,100,KE,1620955867,62,1.7471,40.0573,75.69,9.46
540,Khuzhir,22,RU,1620955868,74,53.1939,107.3397,38.08,2.51
541,Effingham County,1,US,1620955870,72,32.3669,-81.3332,62.6,4.05
542,Talcahuano,90,CL,1620955871,100,-36.7167,-73.1167,53.6,3.44
543,Mazyr,100,BY,1620955872,82,52.0495,29.2456,51.31,11.05
544,Vanavara,26,RU,1620955873,29,60.34,102.2797,53.4,13.27
545,Lázaro Cárdenas,98,MX,1620955802,76,17.9583,-102.2,81.43,5.06
546,Sobolevo,100,RU,1620955876,91,54.4299,31.8996,47.57,9.62
547,Øksfjord,90,NO,1620955877,64,70.2396,22.3479,35.6,8.05
548,São Paulo de Olivença,99,BR,1620955878,98,-3.3783,-68.8725,73.36,1.57
549,Sairang,40,IN,1620955879,78,23.8,92.6667,75.2,8.05
550,Tezu,100,IN,1620955613,98,27.9167,96.1667,66.25,2.64
551,Quesnel,90,CA,1620955882,51,52.9999,-122.5029,62.6,8.05
552,Umm Kaddadah,11,SD,1620955655,44,13.6017,26.6876,80.69,4.63
553,Severo-Kuril'sk,2,RU,1620955884,63,50.6789,156.125,39.7,9.73
