,City,Cloudiness,Country,Date,Humidity,Lat,Lng,Max Temp,Wind Speed
0,Ilulissat,100,GL,1621990184,64,69.2167,-51.1,33.82,4.61
1,Sistranda,38,NO,1621990075,87,63.7256,8.834,53.91,21.5
2,Mataura,100,NZ,1621990186,44,-46.1927,168.8643,49.48,2.44
3,Dillon,100,US,1621990188,85,34.4166,-79.3712,86.25,5.86
4,Ténenkou,100,ML,1621990189,30,14.4572,-4.9169,91.4,8.86
5,Lata,100,PT,1621990190,79,40.1629,-8.3327,59.72,1.77
6,Avarua,40,CK,1621990088,78,-21.2078,-159.775,82.45,8.05
7,Zapolyarnyy,77,RU,1621990192,81,69.4154,30.8136,34.88,1.88
8,Luján,4,AR,1621990194,76,-34.5703,-59.105,54.99,2.42
9,Ţaga,100,RO,1621990195,95,46.95,24.05,59.31,10.87
10,Nushki,0,PK,1621990196,14,29.5542,66.0215,76.48,6.51
11,San Cristobal,96,VE,1621990028,97,7.7669,-72.225,66.2,3.24
12,Sal Rei,0,CV,1621990198,83,16.1833,-22.9167,70.36,18.21
13,Hasaki,100,JP,1621990200,63,35.7333,140.8333,70.29,11.14
14,Tura,100,IN,1621989918,98,25.5198,90.2201,73.71,3.02
15,Prince Rupert,90,CA,1621990204,70,54.3161,-130.3201,50.09,2.3
16,Bitung,99,ID,1621990205,74,1.4451,125.1824,85.05,7.09
17,Cape Town,75,ZA,1621990200,81,-33.9258,18.4232,58.12,1.99
18,Muswellbrook,10,AU,1621990208,50,-32.2667,150.9,67.73,9.69
19,Nikolskoye,99,RU,1621989936,89,59.7035,30.7861,48.09,6.53
20,Qaanaaq,12,GL,1621990210,75,77.484,-69.3632,30.15,4.9
21,Saskylakh,98,RU,1621990211,65,71.9167,114.0833,52.72,10.25
22,Touros,11,BR,1621990213,87,-5.1989,-35.4608,76.1,11.14
23,Albany,100,US,1621989994,65,42.6001,-73.9662,74.17,5.06
24,Rikitea,35,PF,1621989996,77,-23.1203,-134.9692,77.59,16.04
25,Coquimbo,0,CL,1621990098,82,-29.9533,-71.3436,56.93,1.9
26,Tuktoyaktuk,90,CA,1621989993,80,69.4541,-133.0374,30.2,8.05
27,Atuona,49,PF,1621989987,62,-9.8,-139.0333,80.02,12.95
28,Pitimbu,25,BR,1621990219,83,-7.4706,-34.8086,75.79,10.29
29,Nova Olinda do Norte,91,BR,1621990220,93,-3.8881,-59.0942,76.37,0.76
30,Abapó,92,BO,1621990222,78,-18.8333,-63.4667,59.68,3.0
31,Guerrero Negro,100,MX,1621990020,71,27.9769,-114.0611,66.13,15.1
32,Saint-Pierre,0,RE,1621990224,69,-21.3393,55.4781,73.04,6.91
33,Lebu,100,CL,1621990225,89,-37.6167,-73.65,54.19,5.64
34,Garissa,6,KE,1621990226,79,-0.4536,39.6401,72.23,13.35
35,Shakiso,91,ET,1621990228,98,5.75,38.9167,57.07,0.56
36,Hualmay,57,PE,1621990034,88,-11.0964,-77.6139,65.48,5.26
37,Sibi,0,PK,1621990230,12,29.5448,67.8764,90.48,0.56
38,Santa Barbara,1,US,1621990231,50,34.7333,-120.0343,71.78,6.67
39,Bengkulu,99,ID,1621990233,78,-3.8004,102.2655,80.53,3.27
40,Bredasdorp,58,ZA,1621990234,76,-34.5322,20.0403,52.92,5.53
41,Castro,21,BR,1621990235,54,-24.7911,-50.0119,50.18,1.43
42,San Policarpo,100,PH,1621990130,76,12.1791,125.5072,83.39,4.45
43,Arraial do Cabo,67,BR,1621990028,60,-22.9661,-42.0278,69.03,4.5
44,Saint Anthony,1,US,1621990238,21,45.0205,-93.218,82.29,11.68
45,Te Anau,44,NZ,1621990240,59,-45.4167,167.7167,51.04,2.39
46,Ushuaia,75,AR,1621990241,86,-54.8,-68.3,31.66,23.02
47,Kapaa,75,US,1621990242,69,22.0752,-159.319,84.18,1.99
48,Ribeira Grande,100,PT,1621990243,94,38.5167,-28.7,64.45,17.76
49,Namatanai,100,PG,1621990245,90,-3.6667,152.4333,78.53,5.84
50,Hilo,90,US,1621990246,77,19.7297,-155.09,83.28,11.5
51,Tasiilaq,100,GL,1621990247,90,65.6145,-37.6368,37.27,48.05
52,Busselton,79,AU,1621990249,69,-33.65,115.3333,51.04,11.32
53,Hargeisa,95,SO,1621990250,68,9.56,44.065,68.02,21.0
54,Scarborough,48,GB,1621990251,86,54.2797,-0.4044,46.9,3.0
55,East London,62,ZA,1621990252,88,-33.0153,27.9116,64.04,10.89
56,Glenwood Springs,33,US,1621990253,23,39.5505,-107.3248,76.12,4.25
57,Havøysund,88,NO,1621990255,72,70.9963,24.6622,36.48,4.05
58,Hermanus,100,ZA,1621990256,71,-34.4187,19.2345,57.9,6.24
59,Bluff,62,NZ,1621990257,49,-46.6,168.3333,49.8,3.62
60,Souillac,40,MU,1621989989,94,-20.5167,57.5167,70.36,8.57
61,Alim,57,PH,1621990260,72,9.5649,122.4876,84.31,3.53
62,Juneau,75,US,1621990262,74,58.3019,-134.4197,59.0,1.19
63,Ostrovnoy,11,RU,1621989982,78,68.0531,39.5131,34.11,6.69
64,Pontes e Lacerda,0,BR,1621990265,67,-15.2261,-59.3353,71.58,3.8
65,Kavieng,100,PG,1621990267,83,-2.5744,150.7967,80.96,8.05
66,Bocas del Toro,100,PA,1621990268,84,9.3333,-82.25,79.25,5.97
67,Buchanan,100,LR,1621990144,87,5.8808,-10.0467,80.17,5.82
68,Morondava,1,MG,1621990270,88,-20.2833,44.2833,66.18,7.2
69,Sambava,67,MG,1621990131,82,-14.2667,50.1667,67.66,6.46
70,Pisco,75,PE,1621990273,88,-13.7,-76.2167,66.25,4.61
71,Shingū,100,JP,1621990087,50,33.7333,135.9833,69.91,3.47
72,Fortuna,75,US,1621990037,68,40.5982,-124.1573,66.47,7.0
73,Hong Kong,20,HK,1621990025,82,22.2855,114.1577,89.96,1.01
74,Vaini,90,TO,1621990277,88,-21.2,-175.2,73.56,10.36
75,Daru,11,PG,1621990280,69,-9.0763,143.2092,80.87,16.33
76,Puerto Ayora,19,EC,1621990282,91,-0.7393,-90.3518,74.55,4.0
77,New Norfolk,100,AU,1621989988,56,-42.7826,147.0587,54.91,10.83
78,Hofn,99,IS,1621990284,85,64.2539,-15.2082,44.26,11.72
79,Punta Arenas,20,CL,1621990285,80,-53.15,-70.9167,33.91,12.55
80,Ust'-Kut,89,RU,1621990286,71,56.7938,105.7672,49.33,5.12
81,Lázaro Cárdenas,4,MX,1621990288,61,17.9583,-102.2,81.9,9.46
82,Upernavik,56,GL,1621990282,84,72.7868,-56.1549,33.8,15.88
83,San Patricio,0,US,1621990290,83,28.017,-97.5169,83.12,15.68
84,Faanui,16,PF,1621990291,70,-16.4833,-151.75,81.0,10.42
85,Jamestown,1,US,1621990293,60,42.097,-79.2353,81.72,4.61
86,Dikson,65,RU,1621990063,93,73.5069,80.5464,22.39,7.83
87,Kavaratti,100,IN,1621990002,74,10.5669,72.642,83.28,16.8
88,Isoka,1,ZM,1621990296,95,-10.1606,32.6335,50.86,0.92
89,Havelock,75,US,1621990296,88,34.8791,-76.9013,77.95,3.0
90,At-Bashi,100,KG,1621990014,46,41.1702,75.8106,56.25,1.32
91,Gmina Końskie,4,PL,1621990299,93,51.1917,20.4061,50.09,9.13
92,Carnarvon,100,AU,1621990296,62,-24.8667,113.6333,55.47,11.5
93,Lüderitz,0,NA,1621990302,70,-26.6481,15.1594,60.73,5.91
94,Saint George,1,US,1621990303,9,37.1041,-113.5841,90.07,5.01
95,Provideniya,0,RU,1621989722,61,64.3833,-173.3,44.71,15.66
96,Kisaran,78,ID,1621990305,93,2.9845,99.6158,77.94,1.54
97,Bambous Virieux,40,MU,1621990306,94,-20.3428,57.7575,70.21,8.88
98,Cabo San Lucas,20,MX,1621990069,28,22.8909,-109.9124,92.52,6.91
99,Velsk,100,RU,1621990309,90,61.0701,42.0983,39.34,5.95
100,Santa Rosa,31,PH,1621990310,65,14.3122,121.1114,91.09,2.89
101,Pangnirtung,94,CA,1621990300,93,66.1451,-65.7125,20.23,3.27
102,Pyshma,70,RU,1621990312,70,56.9523,63.2513,59.65,3.13
103,Caloundra,0,AU,1621990314,67,-26.8,153.1333,76.05,1.52
104,Barrow,90,US,1621990315,80,71.2906,-156.7887,28.42,9.22
105,Longyearbyen,75,SJ,1621990316,86,78.2186,15.6401,28.24,16.11
106,Hithadhoo,100,MV,1621990295,66,-0.6,73.0833,83.91,22.08
107,Vanimo,19,PG,1621990318,68,-2.6741,141.3028,85.62,2.93
108,Cayenne,0,GF,1621990051,88,4.9333,-52.3333,80.1,1.99
109,Poum,31,NC,1621990321,55,-20.2333,164.0167,74.32,16.73
110,Garden City,75,US,1621990124,42,42.3256,-83.331,84.15,12.53
111,Kiryat Gat,0,IL,1621990204,58,31.61,34.7642,78.4,2.82
112,Cidreira,0,BR,1621990284,72,-30.1811,-50.2056,55.72,10.07
113,Muisne,100,EC,1621990325,86,0.6,-80.0333,76.98,7.74
114,Koutsouras,0,GR,1621990327,52,35.0339,25.9469,74.1,6.98
115,Homer,1,US,1621990328,44,59.6425,-151.5483,69.08,17.27
116,Ponta Delgada,40,PT,1621990329,94,37.7333,-25.6667,65.12,12.66
117,Noumea,86,NC,1621990330,99,-22.2763,166.4572,75.0,10.18
118,Manga,61,BF,1621990332,44,11.6636,-1.0731,89.76,9.17
119,Clyde River,100,CA,1621990333,93,70.4692,-68.5914,26.83,21.85
120,Huarmey,36,PE,1621990334,89,-10.0681,-78.1522,66.31,3.83
121,Mujiayingzi,100,CN,1621990335,65,42.1167,118.7833,55.22,6.24
122,Antalaha,17,MG,1621990337,88,-14.9003,50.2788,68.16,5.75
123,Hay River,20,CA,1621990338,55,60.8156,-115.7999,35.58,8.05
124,Manzhouli,95,CN,1621990100,51,49.6,117.4333,50.13,3.33
125,Nador,90,MA,1621990340,82,35.174,-2.9287,68.07,10.47
126,Ukiah,1,US,1621990341,44,39.1502,-123.2078,81.12,10.36
127,Calvià,6,ES,1621990343,83,39.5657,2.5062,61.57,5.5
128,Laibin,64,CN,1621990344,80,23.7,109.2667,82.22,5.41
129,Pevek,100,RU,1621990345,83,69.7008,170.3133,33.35,3.65
130,Champerico,93,GT,1621990304,74,14.3,-91.9167,84.34,10.6
131,Berdigestyakh,62,RU,1621990348,33,62.0989,126.6992,58.6,6.46
132,Conceição do Mato Dentro,100,BR,1621990349,96,-19.0372,-43.425,65.43,1.57
133,Kemijärvi,94,FI,1621990350,94,66.7131,27.4306,36.46,3.06
134,Kalmunai,100,LK,1621990351,76,7.4167,81.8167,79.05,1.36
135,Bethel,1,US,1621990353,72,41.3712,-73.414,70.03,5.75
136,Los Llanos de Aridane,75,ES,1621990354,77,28.6585,-17.9182,64.15,17.58
137,Leshukonskoye,100,RU,1621990355,86,64.8989,45.7622,31.32,6.87
138,Sobolevo,98,RU,1621990356,82,54.4299,31.8996,52.74,7.76
139,Khatanga,100,RU,1621990290,99,71.9667,102.5,31.91,4.9
140,Samarai,100,PG,1621990359,69,-10.6167,150.6667,79.83,16.15
141,Pemangkat,100,ID,1621990360,77,1.1667,108.9667,81.82,3.74
142,Norman Wells,20,CA,1621990361,20,65.282,-126.8329,62.64,13.8
143,Goderich,100,CA,1621990362,44,43.7501,-81.7165,77.32,17.27
144,Arman',100,RU,1621990364,74,59.7,150.1667,39.61,8.63
145,George Town,20,MY,1621990181,79,5.4112,100.3354,82.89,1.01
146,Butaritari,100,KI,1621990293,77,3.0707,172.7902,82.62,18.86
147,Richards Bay,100,ZA,1621990367,76,-28.783,32.0377,61.2,7.38
148,Chicama,35,PE,1621990368,83,-7.8447,-79.1469,64.94,3.67
149,Bathsheba,20,BB,1621990370,61,13.2167,-59.5167,81.21,14.36
150,Selizharovo,79,RU,1621990371,88,56.8519,33.4487,46.53,5.79
151,Bitkine,75,TD,1621990372,11,11.9801,18.2138,84.85,5.77
152,Yellowknife,20,CA,1621990272,33,62.456,-114.3525,48.29,9.22
153,Kaitangata,100,NZ,1621990374,67,-46.2817,169.8464,42.93,3.27
154,Sioux Lookout,75,CA,1621990376,45,50.1001,-91.917,66.27,14.97
155,Ron Phibun,100,TH,1621990211,79,8.1791,99.8542,82.11,1.9
156,Mahébourg,40,MU,1621990378,94,-20.4081,57.7,70.25,2.3
157,Kiunga,81,PG,1621990379,76,-6.1219,141.2906,80.02,5.14
158,Chokurdakh,100,RU,1621990381,78,70.6333,147.9167,38.21,8.72
159,Catió,100,GW,1621990382,73,11.2833,-15.25,78.69,3.6
160,Rocha,3,UY,1621990317,75,-34.4833,-54.3333,45.52,5.41
161,Xining,38,CN,1621990384,51,36.6167,101.7667,53.74,3.62
162,Howard,52,US,1621990385,82,39.2504,-76.933,75.04,3.0
163,Cartagena,75,CO,1621990254,94,10.3997,-75.5144,82.02,6.91
164,Wagga Wagga,90,AU,1621990165,93,-35.1167,147.3667,52.21,11.21
165,Caravelas,95,BR,1621990389,89,-17.7125,-39.2481,74.25,7.67
166,Brawley,1,US,1621990116,6,32.9787,-115.5303,100.65,6.42
167,Sitka,100,US,1621990391,86,57.0531,-135.33,47.91,7.99
168,Grand Gaube,6,MU,1621990392,81,-20.0064,57.6608,70.38,3.0
169,Presidencia Roque Sáenz Peña,5,AR,1621990393,56,-26.7852,-60.4388,60.91,4.7
170,Amarillo,21,US,1621990395,66,35.222,-101.8313,86.41,1.01
171,Alofi,90,NU,1621990396,88,-19.0595,-169.9187,75.09,18.41
172,Dawei,100,MM,1621990397,97,14.0833,98.2,75.88,2.68
173,Najrān,6,SA,1621990398,29,17.4924,44.1277,77.65,6.62
174,Ambilobe,5,MG,1621990400,90,-13.2,49.05,66.61,3.09
175,Kampene,71,CD,1621990401,82,-3.6,26.6667,66.99,1.54
176,Komsomolets,7,KZ,1621990402,42,53.7453,62.0708,72.12,8.88
177,Ambatofinandrahana,7,MG,1621990404,92,-20.55,46.8,48.97,2.37
178,Camacha,75,PT,1621990405,63,33.0833,-16.3333,62.02,18.41
179,Hervey Bay,0,AU,1621990406,73,-25.2986,152.8535,73.02,3.0
180,Nanpiao,100,CN,1621990407,30,41.0982,120.7479,66.74,9.98
181,Hobart,75,AU,1621990202,68,-42.8794,147.3294,56.26,4.0
182,Végueta,54,PE,1621990410,88,-11.0231,-77.6431,65.3,5.35
183,Alice Springs,0,AU,1621990411,38,-23.7,133.8833,56.75,18.37
184,Broome,100,US,1621990412,78,42.2506,-75.833,72.7,5.01
185,Tyrma,98,RU,1621990413,48,50.0833,132.1667,57.87,2.3
186,Port Elizabeth,0,ZA,1621990415,88,-33.918,25.5701,61.09,9.22
187,Redcar,99,GB,1621990416,71,54.6166,-1.06,47.35,13.73
188,Saint-Philippe,44,RE,1621990417,85,-21.3585,55.7679,72.95,7.83
189,Marabu,20,MY,1621990254,89,4.4148,114.0089,80.74,3.69
190,Sola,75,VU,1621990419,58,-13.8833,167.55,83.07,10.36
191,Arkhangelsk,75,RU,1621990421,80,64.5401,40.5433,33.91,4.34
192,Airai,10,TL,1621990422,60,-8.9266,125.4092,69.6,4.9
193,Iqaluit,90,CA,1621990423,86,63.7506,-68.5145,28.13,17.0
194,Saldanha,7,ZA,1621990314,83,-33.0117,17.9442,48.25,0.83
195,Saint Paul Harbor,0,US,1621990426,56,57.79,-152.4072,55.83,4.52
196,Nakamura,100,JP,1621990427,49,32.9833,132.9333,71.6,3.71
197,Nosy Varika,24,MG,1621990428,91,-20.5833,48.5333,66.36,5.48
198,Kasongo-Lunda,1,CD,1621990429,63,-6.4667,16.8167,65.25,2.59
199,Leningradskiy,39,RU,1621990312,85,69.3833,178.4167,35.92,9.98
200,Verāval,100,IN,1621990432,81,20.9,70.3667,82.02,15.68
201,Lerwick,100,GB,1621990433,92,60.1545,-1.1494,48.2,16.82
202,Saint-Joseph,18,RE,1621990138,82,-21.3667,55.6167,71.96,8.08
203,Severo-Kuril'sk,100,RU,1621990291,97,50.6789,156.125,37.9,14.47
204,Ormara,1,PK,1621990436,90,25.2088,64.6357,83.77,12.48
205,Flinders,0,AU,1621990438,55,-34.5833,150.8552,66.38,8.01
206,Coolum Beach,0,AU,1621990439,67,-26.5333,153.1,74.1,2.15
207,Lukulu,0,ZM,1621990441,59,-14.3707,23.242,52.81,5.3
208,Douglas,1,US,1621990442,39,41.3,-96.167,85.93,7.61
209,Thompson,90,CA,1621990443,74,55.7435,-97.8558,28.56,10.36
210,Banda Aceh,91,ID,1621990445,77,5.5577,95.3222,82.13,5.82
211,Totness,96,SR,1621990446,92,5.8833,-56.3167,77.94,7.61
212,Ponta do Sol,100,PT,1621990447,68,32.6667,-17.1,65.03,5.84
213,Quatre Cocos,11,MU,1621990448,77,-20.2078,57.7625,70.09,8.59
214,Honningsvåg,96,NO,1621990450,70,70.9821,25.9704,36.86,3.29
215,Omsukchan,97,RU,1621990451,68,62.5333,155.8,39.33,4.07
216,Port Lincoln,100,AU,1621990452,53,-34.7333,135.8667,59.16,12.57
217,Esperance,11,AU,1621990453,72,-33.8667,121.9,53.44,9.89
218,Pokhara,100,NP,1621990455,74,28.2333,83.9833,74.05,1.32
219,Hamilton,1,US,1621990379,57,39.1834,-84.5333,83.95,4.47
220,Chui,0,UY,1621990457,83,-33.6971,-53.4616,49.06,6.44
221,Port Alfred,29,ZA,1621990458,89,-33.5906,26.891,62.46,11.97
222,Laguna,1,US,1621990459,34,38.421,-121.4238,86.76,5.99
223,Beisfjord,4,NO,1621990460,76,68.3751,17.5988,44.26,7.76
224,Petropavlovsk-Kamchatskiy,20,RU,1621990462,61,53.0452,158.6483,46.99,12.77
225,St. George's,75,GD,1621990463,74,12.0564,-61.7485,80.28,10.36
226,College,40,US,1621990464,30,64.8569,-147.8028,69.58,1.01
227,Constitución,8,CL,1621990466,82,-35.3333,-72.4167,54.75,6.73
228,Matara,100,LK,1621990467,87,5.9485,80.5353,79.65,15.46
229,Le Port,6,RE,1621990468,77,-20.9373,55.2919,73.36,3.38
230,Vila Velha,90,BR,1621990469,82,-20.3297,-40.2925,73.35,5.01
231,Panji,26,ID,1621990471,63,-7.7253,114.0995,83.5,1.5
232,Kota Kinabalu,20,MY,1621990472,74,5.9749,116.0724,84.18,3.44
233,Datong,98,CN,1621990473,37,40.0936,113.2914,63.23,14.03
234,Yeppoon,5,AU,1621990474,67,-23.1333,150.7333,74.98,6.91
235,Kutum,48,SD,1621990476,28,14.2,24.6667,77.38,5.06
236,Xai-Xai,11,MZ,1621990477,83,-25.0519,33.6442,58.71,6.71
237,Kinshasa,40,CD,1621989798,94,-4.3246,15.3215,77.38,2.51
238,Tiksi,7,RU,1621990479,89,71.6872,128.8694,35.58,3.11
239,Maiduguri,97,NG,1621990480,12,11.8464,13.1603,84.13,0.81
240,Vestmannaeyjar,86,IS,1621990482,89,63.4427,-20.2734,45.12,25.41
241,Ballina,0,AU,1621990364,73,-28.8667,153.5667,70.79,6.91
242,Dwārka,9,IN,1621990484,81,22.2394,68.9678,83.12,19.33
243,Rome,100,US,1621990485,93,43.2128,-75.4557,74.43,7.9
244,Shahdol,100,IN,1621990487,25,23.2833,81.35,79.3,2.33
245,Vostok,30,RU,1621990488,49,46.4856,135.8833,53.64,10.71
246,Abhā,0,SA,1621990489,63,18.2164,42.5053,67.82,4.7
247,Carnot,100,CF,1621990490,80,4.9409,15.8665,73.81,1.39
248,Ipixuna,22,BR,1621990492,88,-1.7625,-48.8043,75.15,2.89
249,Puerto Carreño,100,CO,1621990493,87,6.189,-67.4859,77.72,6.17
250,Amapá,100,BR,1621990494,99,1.0,-52.0,73.06,2.04
251,Ozernovskiy,100,RU,1621990495,77,51.5,156.5167,41.58,2.06
252,Nome,15,US,1621990497,32,64.5011,-165.4064,69.12,1.88
253,Altay,0,CN,1621990498,26,47.8667,88.1167,71.06,0.96
254,Baruun-Urt,100,MN,1621990499,68,46.6806,113.2792,45.97,8.48
255,Ayagoz,0,KZ,1621990500,49,47.9714,80.4392,69.13,11.56
256,Aasiaat,16,GL,1621990504,74,68.7098,-52.8699,27.27,6.17
257,Korla,0,CN,1621990337,18,41.7597,86.1469,77.13,7.72
258,Ust-Kuyga,0,RU,1621990506,35,70.0167,135.6,59.05,21.14
259,Dawlatabad,0,AF,1621990507,15,36.4141,64.9053,76.6,5.46
260,Jumla,100,NP,1621990509,71,29.2747,82.1838,57.76,1.79
261,Filingué,100,NE,1621990510,19,14.3521,3.3168,91.04,8.61
262,Shelburne,100,CA,1621990373,76,44.0787,-80.2041,79.29,11.59
263,Iisalmi,100,FI,1621990512,94,63.5592,27.1907,42.82,3.09
264,Nurota,64,UZ,1621990513,23,40.5614,65.6886,68.09,8.84
265,Lavrentiya,85,RU,1621990515,84,65.5833,-171.0,38.8,9.71
266,Mbini,94,GQ,1621990516,89,1.574,9.6134,78.78,4.61
267,Morón,2,AR,1621990517,82,-34.6534,-58.6198,54.99,2.82
268,Henties Bay,0,NA,1621990518,82,-22.116,14.2845,62.73,7.78
269,Cotonou,40,BJ,1621990265,84,6.3654,2.4183,84.18,11.5
270,Bilibino,100,RU,1621990521,58,68.0546,166.4372,48.96,8.16
271,Itoman,40,JP,1621990522,82,26.1247,127.6694,84.58,9.22
272,Terme,0,TR,1621990523,89,41.2092,36.9739,52.74,3.89
273,Litovko,100,RU,1621990524,92,49.2361,135.1742,40.32,4.59
274,Udachny,14,RU,1621990526,61,66.4167,112.4,49.78,11.54
275,Birobidzhan,88,RU,1621990359,69,48.8,132.95,52.03,5.46
276,Alberton,100,CA,1621990528,83,46.8168,-64.0654,53.73,21.23
277,Tonj,77,SS,1621990529,77,7.2737,28.6822,75.11,4.23
278,Kichera,100,RU,1621990530,66,55.9375,110.0997,44.8,4.61
279,Inyonga,2,TZ,1621990532,77,-6.7167,32.0667,58.44,4.43
280,Yakeshi,100,CN,1621990533,62,49.2833,120.7333,45.82,5.28
281,Sirte,3,LY,1621990534,81,31.2089,16.5887,69.94,8.75
282,Tutóia,76,BR,1621990535,85,-2.7619,-42.2744,78.71,7.87
283,Zhengjiatun,100,CN,1621990537,16,43.5064,123.5064,67.5,6.29
284,Bacolod City,90,PH,1621990538,74,10.6667,122.95,84.2,1.63
285,Novo Aripuanã,96,BR,1621990539,79,-5.1206,-60.3797,78.55,0.74
286,Biak,18,ID,1621990540,69,-0.9131,122.8766,81.95,7.14
287,San Borja,82,BO,1621990542,81,-14.8167,-66.85,67.57,0.83
288,Katsuura,100,JP,1621990543,72,35.1333,140.3,71.71,16.53
289,Kobryn,100,BY,1621990544,93,52.2138,24.3564,48.36,13.15
290,Kyrnasivka,45,UA,1621990545,90,48.5955,28.979,58.08,7.78
291,Barranca,54,PE,1621990547,87,-10.75,-77.7667,65.05,4.27
292,Oriximiná,98,BR,1621990548,87,-1.7656,-55.8661,76.91,3.71
293,Torbay,90,CA,1621990549,75,47.6666,-52.7314,47.26,24.16
294,Svetogorsk,100,RU,1621990550,77,61.1121,28.8632,45.25,1.99
295,Cherskiy,16,RU,1621990552,32,68.75,161.3,62.24,15.26
296,‘Ewa Beach,90,US,1621990553,65,21.3156,-158.0072,84.09,15.99
297,Hue,40,VN,1621990554,74,16.4667,107.6,86.11,0.85
298,Kuril'sk,100,RU,1621990555,93,45.2333,147.8833,41.41,13.04
299,Alcântara,36,BR,1621990557,86,-2.4089,-44.4147,82.6,6.11
300,Ferrol,100,ES,1621990518,78,43.4832,-8.2369,54.68,5.68
301,Mlonggo,69,ID,1621990559,75,-6.5333,110.7,84.09,4.76
302,Hambantota,75,LK,1621990560,83,6.1241,81.1185,80.94,18.32
303,Narsaq,27,GL,1621990561,72,60.9167,-46.05,32.9,2.35
304,Kumluca,0,TR,1621990563,46,36.3703,30.2869,76.21,3.0
305,Iskitim,6,RU,1621990564,78,54.6366,83.3045,64.26,3.31
306,Bonthe,100,SL,1621990565,86,7.5264,-12.505,79.23,5.06
307,Vanavara,100,RU,1621990566,61,60.34,102.2797,34.66,5.53
308,Broken Hill,0,AU,1621990568,62,-31.95,141.4333,55.11,17.27
309,Akureyri,0,IS,1621990336,81,65.6835,-18.0878,39.13,5.75
310,Amahai,64,ID,1621990570,80,-3.3333,128.9167,81.79,6.93
311,Nemuro,100,JP,1621990571,89,43.3236,145.575,61.23,2.68
312,Waitara,0,NZ,1621990463,58,-38.925,174.25,57.72,3.04
313,Cockburn Town,40,TC,1621990331,78,21.4612,-71.1419,78.76,13.8
314,Tooele,1,US,1621990574,30,40.5308,-112.2983,73.35,6.58
315,Haimen,59,CN,1621990576,79,23.1935,116.6142,80.49,5.01
316,Bantry,100,IE,1621990577,86,51.6833,-9.45,47.68,4.36
317,Waddān,0,LY,1621990578,23,29.1614,16.139,79.79,5.37
318,Lagos,100,NG,1621990579,86,6.5833,3.75,82.72,6.22
319,Plettenberg Bay,100,ZA,1621990581,86,-34.0527,23.3716,58.39,5.23
320,Dombarovskiy,66,RU,1621990582,51,50.7587,59.5386,69.94,1.66
321,Husavik,19,IS,1621990583,79,66.0449,-17.3389,39.11,12.46
322,Uarini,100,BR,1621990584,96,-2.99,-65.1083,74.88,1.72
323,Bonavista,100,CA,1621990586,81,48.6499,-53.1147,48.2,22.88
324,Cocobeach,100,GA,1621990587,87,1.0002,9.5823,78.73,4.32
325,Lazarev,100,RU,1621990588,93,52.225,141.5131,33.82,10.78
326,Kaélé,99,CM,1621990345,20,10.1092,14.4508,91.8,4.36
327,Dubai,0,AE,1621990552,38,25.2582,55.3047,94.21,2.3
328,San Juan de Urabá,100,CO,1621990591,87,8.7592,-76.5297,80.02,4.12
329,Ozinki,100,RU,1621990593,67,51.1786,49.6769,58.98,22.41
330,Myitkyina,79,MM,1621990594,89,25.3833,97.4,78.46,0.45
331,Sokoni,100,TZ,1621990595,69,-6.4333,39.55,79.02,18.16
332,Yulara,100,AU,1621990348,50,-25.2406,130.9889,49.84,9.22
333,Chālūs,75,IR,1621990597,88,36.655,51.4204,65.66,4.61
334,Lorengau,100,PG,1621990599,90,-2.0226,147.2712,78.57,8.72
335,Mehamn,80,NO,1621990600,75,71.0357,27.8492,36.14,6.78
336,Tignère,100,CM,1621990601,81,7.3667,12.65,68.05,3.27
337,Klaksvík,81,FO,1621990603,90,62.2266,-6.589,47.32,17.34
338,Burnie,87,AU,1621990604,78,-41.0667,145.9167,52.11,18.45
339,Mitsamiouli,9,KM,1621990605,71,-11.3847,43.2844,77.74,9.13
340,Necochea,29,AR,1621990606,56,-38.5473,-58.7368,46.18,10.54
341,Atar,6,MR,1621990608,19,20.5169,-13.0499,84.38,8.93
342,Guiren,100,CN,1621990609,92,33.6697,118.1889,62.55,9.31
343,Novikovo,100,RU,1621990610,76,51.1537,37.8879,55.63,4.72
344,Vardø,20,NO,1621990612,72,70.3705,31.1107,36.59,8.72
345,Puerto Escondido,40,MX,1621990614,74,15.85,-97.0667,86.83,3.44
346,Taku,83,CN,1621990615,50,39.0211,117.6469,66.16,7.05
347,Qaqortoq,23,GL,1621990616,68,60.7167,-46.0333,34.34,7.05
348,San Vicente,0,AR,1621990617,68,-26.6167,-54.1333,48.49,2.62
349,Vila Franca do Campo,100,PT,1621990334,87,37.7167,-25.4333,64.81,9.51
350,Mayor Pablo Lagerenza,0,PY,1621990620,52,-19.9309,-60.7718,68.95,3.8
351,Arrondissement de Narbonne,21,FR,1621990621,53,43.0833,2.8333,61.03,6.13
352,Pimentel,75,PE,1621990622,86,-6.8367,-79.9342,66.49,5.99
353,Banikoara,31,BJ,1621990624,57,11.2985,2.4386,83.46,4.63
354,Suntar,100,RU,1621990625,43,62.1444,117.6319,56.73,4.76
355,Dingle,100,PH,1621990626,77,10.9995,122.6711,83.55,3.42
356,Akashi,100,JP,1621990628,51,34.6333,134.9833,70.25,0.81
357,Kampot,100,KH,1621990629,87,10.6167,104.1833,80.65,12.12
358,Ust'-Omchug,100,RU,1621990630,52,61.15,149.6333,45.43,10.45
359,Nauta,28,PE,1621990631,91,-4.5061,-73.5757,72.68,2.15
360,Poya,42,NC,1621990633,49,-21.35,165.15,74.17,8.59
361,Elmina,99,GH,1621990634,87,5.0898,-1.348,79.66,7.14
362,São Filipe,0,CV,1621990635,73,14.8961,-24.4956,74.52,9.46
363,Departamento de Maldonado,4,UY,1621990406,70,-34.6667,-54.9167,56.59,4.45
364,Muhos,17,FI,1621990637,98,64.808,25.9931,44.38,4.9
365,Timrå,90,SE,1621990639,68,62.487,17.3257,51.48,12.66
366,Agüimes,75,ES,1621990640,63,27.9054,-15.4461,63.66,21.85
367,Duncan,1,US,1621990561,69,34.5023,-97.9578,79.05,4.61
368,Catuday,12,PH,1621990642,66,16.2923,119.8062,84.04,1.36
369,Batemans Bay,0,AU,1621990644,37,-35.7167,150.1833,67.1,4.68
370,Gornopravdinsk,100,RU,1621990645,74,60.05,69.9,56.77,7.67
371,Gusinoye Ozero,100,RU,1621990646,67,51.1144,106.2614,52.03,1.59
372,Inverell,78,AU,1621990647,71,-29.7833,151.1167,64.11,5.01
373,Conceição do Araguaia,0,BR,1621990649,65,-8.2578,-49.2647,80.73,1.19
374,Pedasí,100,PA,1621990650,84,7.5333,-80.0333,81.03,9.4
375,Kikwit,58,CD,1621990651,60,-5.041,18.8162,68.85,2.86
376,Vrangel',42,RU,1621990652,65,42.7297,133.0839,54.86,8.16
377,Launceston,40,AU,1621990654,77,-41.45,147.1667,57.61,5.01
378,Tuatapere,90,NZ,1621990655,52,-46.1333,167.6833,49.82,2.3
379,Zhigansk,100,RU,1621990656,52,66.7697,123.3711,52.52,5.1
380,Bilma,0,NE,1621990658,8,18.6853,12.9164,85.41,5.55
381,Coyhaique,90,CL,1621990659,93,-45.5752,-72.0662,33.75,0.0
382,Toamasina,20,MG,1621990660,94,-18.1667,49.3833,66.2,0.0
383,Podor,0,MR,1621990661,33,16.6527,-14.9587,89.55,6.91
384,Anadyr,40,RU,1621990663,57,64.75,177.4833,48.7,24.0
385,Urucará,100,BR,1621990664,81,-2.5364,-57.76,79.25,2.51
386,Sydney,20,AU,1621990450,56,-33.8679,151.2073,69.48,1.01
387,Kalino,99,RU,1621990666,95,58.2504,57.6085,49.91,3.22
388,Cam Ranh,40,VN,1621990668,89,11.9214,109.1591,80.56,1.45
389,Astara,100,AZ,1621990669,95,38.5,48.6667,62.58,3.6
390,Deputatsky,0,RU,1621990671,39,69.3,139.9,48.99,18.68
391,Araouane,100,ML,1621990672,19,18.9048,-3.5265,95.92,6.4
392,Zabid,6,YE,1621990673,71,14.1951,43.3152,84.92,0.58
393,Kazachinskoye,93,RU,1621990674,39,57.6953,93.2761,46.89,9.98
394,Palma del Río,0,ES,1621990676,54,37.7002,-5.2812,68.07,3.42
395,Jobner,13,IN,1621990677,37,26.9667,75.3833,83.62,4.65
396,Okha,100,RU,1621990678,76,53.5739,142.9478,39.36,9.48
397,Jizan,3,SA,1621990679,46,17.3333,42.6667,88.74,1.99
398,San Quintín,58,MX,1621990681,69,30.4833,-115.95,66.22,8.46
399,Sühbaatar,85,MN,1621990682,50,50.2314,106.2078,56.44,6.67
400,Ubari,2,LY,1621990683,11,26.5921,12.7805,86.94,8.16
401,Bogorodskoye,92,RU,1621990684,83,56.55,37.8833,48.11,3.87
402,Pauini,100,BR,1621990686,79,-7.7136,-66.9764,77.83,1.59
403,Mlowo,5,TZ,1621990687,93,-9.0,32.9833,49.23,3.71
404,Aswān,0,EG,1621990688,16,24.0934,32.907,81.9,8.79
405,Aquiraz,20,BR,1621990689,84,-3.9014,-38.3911,80.69,8.46
406,Tautira,100,PF,1621990691,73,-17.7333,-149.15,82.42,4.61
407,Waslala,100,NI,1621990692,96,13.2333,-85.3833,73.02,2.89
408,Kosino,96,RU,1621990693,85,58.4127,51.2782,49.37,5.95
409,Srednekolymsk,100,RU,1621990694,47,67.45,153.6833,54.84,20.42
410,San Rafael,10,AR,1621990696,45,-34.6177,-68.3301,55.26,6.29
411,Bariloche,75,AR,1621990595,81,-41.1456,-71.3082,46.15,10.04
412,La Ronge,20,CA,1621990698,36,55.1001,-105.2842,44.85,13.8
413,Coahuayana Viejo,100,MX,1621990699,62,18.7333,-103.6833,80.74,4.83
414,Martapura,0,ID,1621990701,83,-3.4167,114.85,80.69,2.06
415,Cabedelo,50,BR,1621990473,85,-6.9811,-34.8339,75.87,10.83
416,Samoylovka,7,RU,1621990703,85,51.184,43.7081,52.3,7.96
417,Ahipara,83,NZ,1621990704,62,-35.1667,173.1667,60.49,10.25
418,Lincoln,100,US,1621990561,100,40.8,-96.667,86.07,1.01
419,Manggar,24,ID,1621990707,70,-2.8833,108.2667,85.98,10.6
420,Kattivākkam,62,IN,1621990708,74,13.2167,80.3167,83.07,17.16
421,Fomboni,6,KM,1621990709,67,-12.28,43.7425,78.8,15.23
422,Bojnourd,40,IR,1621990710,63,37.4747,57.329,66.15,0.0
423,Baní,15,DO,1621990508,81,18.2833,-70.3333,78.75,10.18
424,Carutapera,7,BR,1621990713,85,-1.195,-46.02,78.08,7.45
425,Watsa,26,CD,1621990714,98,3.0372,29.5355,63.05,1.52
426,Denpasar,40,ID,1621990456,84,-8.65,115.2167,83.86,9.44
427,Den Helder,90,NL,1621990716,88,52.9599,4.7593,49.98,10.36
428,Wiarton,75,CA,1621990717,53,44.7407,-81.1332,75.65,12.66
429,Skibbereen,100,IE,1621990719,86,51.55,-9.2667,48.0,4.12
430,Usinsk,100,RU,1621990720,69,65.9939,57.5281,32.2,16.8
431,Barra de Tecoanapa,98,MX,1621990721,57,16.5167,-98.75,84.76,7.94
432,Oparino,100,RU,1621990723,86,59.8518,48.2783,44.76,7.76
433,Monterey,12,US,1621990724,31,36.2505,-121.2516,79.72,16.4
434,João Monlevade,100,BR,1621990725,97,-19.81,-43.1736,63.1,1.88
435,Uray,100,RU,1621990726,77,60.1247,64.7758,56.21,1.63
436,Mangai,40,CD,1621990728,65,-4.05,19.5333,69.04,2.3
437,Mpongwe,0,ZM,1621990729,77,-13.5091,28.155,48.63,5.17
438,Hudiksvall,100,SE,1621990730,87,61.729,17.1036,43.52,10.98
439,Northam,22,GB,1621990731,93,51.0333,-4.2167,48.65,7.45
440,Bongandanga,63,CD,1621990733,91,1.5,21.05,71.76,0.49
441,La Peca,21,PE,1621990734,90,-5.6111,-78.435,67.73,3.87
442,Umluj,0,SA,1621990735,58,25.0213,37.2685,82.44,9.86
443,Okhotsk,63,RU,1621990736,51,59.3833,143.3,50.81,7.47
444,Ulaangom,100,MN,1621990738,41,49.9811,92.0667,63.93,3.42
445,Omboué,99,GA,1621990739,94,-1.5746,9.2618,77.4,6.51
446,Grootfontein,0,NA,1621990513,81,-19.5667,18.1167,42.37,3.44
447,Toba,100,JP,1621990741,61,34.4833,136.85,72.01,4.0
448,Romny,10,UA,1621990742,93,50.751,33.4747,54.63,7.36
449,Santarém,0,BR,1621990744,100,-2.4431,-54.7083,77.13,0.0
450,Mazagão,59,BR,1621990745,92,-0.115,-51.2894,75.11,3.4
451,Rafai,53,CF,1621990746,95,4.95,23.9167,68.68,1.36
452,Farnes,100,NO,1621990748,96,61.3167,7.8,44.19,4.59
453,Baykit,100,RU,1621990749,69,61.67,96.37,32.52,9.73
454,Ucluelet,100,CA,1621990750,78,48.9329,-125.5528,65.05,1.01
455,Fairbanks,17,US,1621990751,31,64.8378,-147.7164,68.59,1.01
456,Kruisfontein,78,ZA,1621990753,93,-34.0033,24.7314,53.89,4.88
457,Casper,26,US,1621990754,24,42.8666,-106.3131,70.81,3.0
458,Nyurba,100,RU,1621990755,48,63.2842,118.3319,55.29,4.56
459,Sasovo,99,RU,1621990756,73,54.3537,41.9199,50.16,2.95
460,Kilindoni,18,TZ,1621990758,67,-7.9139,39.6668,78.85,16.98
461,Nanton,100,CA,1621990759,65,50.3501,-113.7687,50.36,4.38
462,Muzhi,100,RU,1621990760,90,65.3667,64.6667,40.19,11.65
463,Port Hardy,90,CA,1621990762,66,50.6996,-127.4199,51.98,8.05
464,Tevriz,100,RU,1621990763,84,57.509,72.4042,59.11,5.35
465,Ancud,100,CL,1621990764,94,-41.8697,-73.8203,55.42,15.28
466,Chake Chake,97,TZ,1621990765,72,-5.2459,39.7666,76.96,12.68
467,Maniitsoq,13,GL,1621990767,75,65.4167,-52.9,31.35,15.7
468,Geraldton,100,AU,1621990768,62,-28.7667,114.6,56.12,18.07
469,Drummondville,99,CA,1621990567,93,45.8834,-72.4824,76.12,11.39
470,Muzaffarabad,0,PK,1621990770,51,34.37,73.4711,66.96,6.58
471,La Seyne-sur-Mer,0,FR,1621990771,65,43.0982,5.8847,62.55,3.0
472,Témiscaming,18,CA,1621990773,68,46.7212,-79.0971,72.95,5.75
473,Agadez,0,NE,1621990774,7,19.75,10.25,83.46,6.44
474,Collie,100,AU,1621990775,68,-33.3667,116.15,52.79,5.95
475,Verkhniye Sergi,96,RU,1621990777,91,56.6469,59.5556,49.42,11.41
476,Havre-St-Pierre,90,CA,1621990774,93,50.2334,-63.5986,46.99,9.22
477,Codrington,69,AU,1621990779,62,-38.2667,141.9667,55.4,19.22
478,Mirny,88,RU,1621990780,54,62.5353,113.9611,51.93,7.47
479,São Raimundo das Mangabeiras,7,BR,1621990781,48,-7.0219,-45.4811,75.63,2.08
480,Kaseda-shirakame,100,JP,1621990783,52,31.4167,130.3167,65.43,4.09
481,Ajdabiya,0,LY,1621990784,19,30.7554,20.2263,77.63,7.85
482,Coburg,100,DE,1621990785,89,50.2667,10.9667,47.98,1.01
483,Moerai,35,PF,1621990786,80,-22.4333,-151.3333,78.67,6.78
484,Anakapalle,100,IN,1621990788,44,17.6833,83.0167,84.15,7.52
485,Sabha,0,LY,1621990789,12,27.0377,14.4283,86.05,10.22
486,Siilinjärvi,0,FI,1621990790,87,63.0833,27.6667,42.82,4.72
487,Mar del Plata,0,AR,1621990791,63,-38.0023,-57.5575,49.08,10.0
488,Karapyshi,11,UA,1621990793,93,49.6424,30.79,53.96,7.0
489,Vestmanna,20,FO,1621990794,93,62.1564,-7.1664,45.52,10.92
490,Puerto Colombia,100,CO,1621990795,86,10.9878,-74.9547,82.49,24.67
491,Kasungu,0,MW,1621990797,80,-13.0333,33.4833,49.46,2.98
492,Lagoa,100,PT,1621990798,90,39.05,-27.9833,63.59,18.12
493,Keflavik,40,IS,1621990799,76,64.0049,-22.5624,46.83,25.32
494,Eureka,2,US,1621990737,73,40.8021,-124.1637,66.74,8.99
495,La Libertad,60,EC,1621990803,85,-2.2333,-80.9,72.79,7.47
496,Atasū,0,KZ,1621990806,39,48.6814,71.6433,72.34,5.59
497,Abu Samrah,0,SY,1621990807,42,35.3029,37.1841,69.31,5.84
498,Buritizeiro,27,BR,1621990809,61,-17.3511,-44.9622,75.43,2.93
499,Neepawa,100,CA,1621990811,75,50.2289,-99.4664,39.81,21.14
500,Zaoyang,100,CN,1621990812,82,32.1272,112.7542,65.98,5.32
501,Mattru,100,SL,1621990814,97,7.6244,-11.8332,75.51,2.48
502,Bosaso,23,SO,1621990815,61,11.2842,49.1816,86.79,3.27
503,Arrondissement d'Arcachon,0,FR,1621990816,87,44.5875,-1.0519,48.52,0.0
504,Saint-Augustin,100,CA,1621990818,65,51.226,-58.6502,47.16,12.01
505,Meulaboh,96,ID,1621990819,78,4.1363,96.1285,80.2,4.41
506,Beringovskiy,100,RU,1621990820,98,63.05,179.3167,32.67,7.2
507,Weligama,100,LK,1621990822,86,5.9667,80.4167,79.93,16.08
508,Norsup,100,VU,1621990823,50,-16.0667,167.3833,78.19,5.82
509,Fukuechō,100,JP,1621990824,52,32.6881,128.8419,67.51,6.11
510,Mana,89,GF,1621990826,92,5.6592,-53.7767,78.26,6.4
511,Gamba,49,GA,1621990827,94,-2.65,10.0,77.18,4.23
512,Banjar,30,ID,1621990828,72,-8.19,114.9675,84.06,0.63
513,Santa Fe,0,AR,1621990657,78,-31.6333,-60.7,57.97,1.01
514,Hirtshals,100,DK,1621990830,94,57.5881,9.9592,49.86,25.72
515,Saint-François,0,FR,1621990832,88,46.4154,3.9054,46.67,5.75
516,Yenagoa,100,NG,1621990833,95,4.9247,6.2642,76.41,4.5
517,Santa Isabel,77,BR,1621990834,73,-23.3156,-46.2214,60.49,1.43
518,North Battleford,1,CA,1621990807,49,52.7834,-108.2847,48.2,10.36
519,Lyman,60,UA,1621990626,77,48.9884,37.8023,57.76,3.98
520,Waingapu,8,ID,1621990838,70,-9.6567,120.2641,82.6,13.38
521,Salalah,66,OM,1621990839,80,17.0151,54.0924,78.4,5.01
522,Aklavik,100,CA,1621990840,70,68.2191,-135.0107,37.65,7.74
523,Penzance,100,GB,1621990841,93,50.1186,-5.5371,49.21,8.59
524,Cap Malheureux,6,MU,1621990843,81,-19.9842,57.6142,70.47,3.0
525,Assiut,0,EG,1621990844,25,27.181,31.1837,78.19,7.09
526,Boddam,100,GB,1621990845,92,57.4667,-1.7833,48.58,17.69
527,Maningrida,100,AU,1621990846,58,-12.0667,134.2667,81.59,12.39
528,Langxiang,62,CN,1621990848,23,46.95,128.8833,61.29,7.65
529,Oudtshoorn,98,ZA,1621990849,78,-33.5907,22.2014,58.08,2.64
530,Mackay,46,AU,1621990722,78,-21.15,149.2,78.67,8.05
531,Swift Current,100,CA,1621990805,81,50.2834,-107.8014,44.02,9.06
532,Newport,4,GB,1621990627,88,51.5877,-2.9984,48.85,6.55
533,Lapeer,1,US,1621990853,41,43.0514,-83.3188,82.27,9.22
534,Perth,0,AU,1621990690,80,-31.9333,115.8333,56.26,11.95
535,Makakilo City,90,US,1621990856,66,21.3469,-158.0858,82.69,5.01
536,Tomohon,99,ID,1621990857,71,1.3346,124.8392,76.14,2.68
537,Rassvet,13,RU,1621990858,94,46.8333,40.75,59.25,2.24
538,Kerema,99,PG,1621990859,76,-7.9631,145.7785,80.69,7.63
539,Olafsvik,89,IS,1621990633,79,64.8945,-23.7142,46.58,17.65
540,Asău,6,RO,1621990862,100,46.4333,26.4,59.76,4.72
541,Forssa,100,FI,1621990863,83,60.8146,23.6215,50.43,10.69
542,Little Current,100,CA,1621990864,94,45.9793,-81.9248,61.41,6.73
543,Uttaradit,86,TH,1621990866,76,17.6667,100.5,79.23,0.67
544,Avera,99,US,1621990867,45,33.194,-82.5271,81.75,7.45
545,Biloela,0,AU,1621990813,45,-24.4167,150.5,73.54,1.61
546,Abu Kamal,0,SY,1621990869,30,34.4506,40.9171,79.45,17.98
547,Sørland,0,NO,1621990870,75,67.667,12.6934,43.14,22.91
548,Faya,34,SA,1621990872,41,18.3851,42.4509,68.36,4.25
549,Dabwāli,0,IN,1621990873,21,29.95,74.7333,88.56,2.55
550,Micheweni,91,TZ,1621990874,74,-4.9667,39.8333,77.49,14.72
551,Taoudenni,100,ML,1621990876,17,22.6783,-3.9836,97.27,11.12
552,Harare,0,ZW,1621990877,67,-17.8294,31.0539,30.65,4.81
553,Port Blair,89,IN,1621990878,82,11.6667,92.75,83.44,21.77
554,Pacific Grove,34,US,1621990879,76,36.6177,-121.9166,75.61,1.99
555,Tibati,100,CM,1621990881,92,6.4667,12.6333,69.37,0.87
556,Abu Dhabi,0,AE,1621990738,29,24.4667,54.3667,93.31,10.65
557,Songyang,100,CN,1621990820,47,34.4553,113.0281,73.58,7.23
558,Yerbogachën,97,RU,1621990884,52,61.2767,108.0108,40.66,6.51
559,Lompoc,100,US,1621990885,74,34.6391,-120.4579,80.56,28.01
560,Laurel,1,US,1621990716,82,39.0993,-76.8483,75.69,1.99
561,Vigrestad,100,NO,1621990888,79,58.5667,5.7,53.96,9.75
562,Bubaque,93,GW,1621990889,73,11.2833,-15.8333,78.93,4.34
563,Avanigadda,99,IN,1621990638,48,16.0215,80.9181,78.94,9.37
564,Swan Hill,28,AU,1621990792,60,-35.3378,143.5544,57.47,12.8
565,Hobyo,75,SO,1621990892,80,5.3505,48.5268,78.19,20.24
566,Padina,100,RS,1621990894,82,45.1181,20.7272,55.76,7.7
567,Dvorichna,100,UA,1621990895,79,49.8496,37.6857,55.89,4.09
568,Okolona,1,US,1621990896,52,38.1412,-85.6877,82.65,5.75
569,Dom Pedrito,0,BR,1621990880,86,-30.9828,-54.6731,48.97,2.19
570,Mawlaik,100,MM,1621990898,89,23.6333,94.4167,79.18,1.48
571,Dunedin,100,NZ,1621990779,50,-45.8742,170.5036,52.81,5.01
572,Cantaura,100,VE,1621990901,56,9.3057,-64.3584,81.34,8.19
573,Río Gallegos,30,AR,1621990902,76,-51.6226,-69.2181,35.87,21.03
574,Waipawa,38,NZ,1621990903,60,-41.4122,175.5153,53.46,8.52
575,Virginia Beach,25,US,1621990653,88,36.8529,-75.978,75.42,11.61
576,Tual,100,ID,1621990906,76,-5.6667,132.75,82.04,22.75
577,Praia,0,CV,1621990907,78,14.9215,-23.5087,72.14,12.66
578,Mnogovershinnyy,100,RU,1621990908,75,53.9353,139.9242,39.31,3.62
579,Marzuq,79,YE,1621990909,53,14.4,46.4667,76.57,4.23
580,Ürümqi,0,CN,1621990763,23,43.801,87.6005,72.55,4.16
581,Mount Gambier,94,AU,1621990912,65,-37.8333,140.7667,54.09,11.34
582,Ratnagiri,89,IN,1621990913,79,16.9833,73.3,82.35,11.74
583,Yerofey Pavlovich,100,RU,1621990914,70,53.9667,121.9667,48.76,2.21
584,Nizhnevartovsk,75,RU,1621990916,71,60.9344,76.5531,48.22,8.95
585,Evensk,100,RU,1621990917,94,61.95,159.2333,38.95,20.76
586,Front Royal,1,US,1621990918,81,38.9182,-78.1944,75.45,3.44
587,Maceió,75,BR,1621990795,94,-9.6658,-35.7353,76.44,12.44
588,Yei,26,SS,1621990920,84,4.095,30.6779,68.76,4.18
589,Padang,94,ID,1621990922,79,-0.9492,100.3543,81.86,2.66
590,Roald,20,NO,1621990923,87,62.5833,6.1333,52.16,19.57
591,Lloydminster,100,CA,1621990865,43,53.2835,-110.0016,50.09,6.35
592,Kasama,5,ZM,1621990925,96,-10.2129,31.1808,49.53,3.87
